City_ID,City,Lat,Lng,Max Temp,Humidity,Cloudiness,Wind Speed,Country,Date
0,vaini,-21.2,-175.2,28.09,100,75,3.6,TO,1675236006
1,khingansk,49.1167,131.1833,-20.55,94,99,4.92,RU,1675236007
2,saskylakh,71.9167,114.0833,-25.76,96,100,9.09,RU,1675236008
3,new norfolk,-42.7826,147.0587,18.29,34,4,1.79,AU,1675236008
4,westport,41.1415,-73.3579,-0.25,57,100,4.63,US,1675236011
5,longyearbyen,78.2186,15.6401,-8.09,62,75,4.63,SJ,1675236012
6,lavrentiya,65.5833,-171.0,-12.42,100,88,1.66,RU,1675236012
7,khatanga,71.9667,102.5,-43.32,100,56,0.46,RU,1675236013
8,yellowknife,62.456,-114.3525,-33.71,68,0,5.66,CA,1675236014
9,ushuaia,-54.8,-68.3,13.81,51,75,5.66,AR,1675236014
10,pokhara,28.2333,83.9833,24.05,19,0,3.58,NP,1675236015
11,tiksi,71.6872,128.8694,-16.22,98,100,3.87,RU,1675236015
12,punta arenas,-53.15,-70.9167,12.06,66,75,11.83,CL,1675236016
13,nikolskoye,59.7035,30.7861,-0.05,87,100,2.42,RU,1675236016
14,carauari,-4.8828,-66.8958,21.51,98,100,0.42,BR,1675236017
15,kruisfontein,-34.0033,24.7314,24.94,53,1,7.08,ZA,1675236018
16,iqaluit,63.7506,-68.5145,-26.15,64,75,7.72,CA,1675236018
17,nome,64.5011,-165.4064,-6.96,100,100,0.0,US,1675236019
18,puracic,44.5469,18.4767,-2.73,70,8,1.7,BA,1675236019
19,daru,-9.0763,143.2092,28.34,83,100,4.18,PG,1675236020
20,busselton,-33.65,115.3333,28.65,32,0,2.21,AU,1675236020
21,atuona,-9.8,-139.0333,26.2,75,2,9.91,PF,1675236021
22,bonthe,7.5264,-12.505,23.19,89,2,1.75,SL,1675236021
23,kahului,20.8947,-156.47,22.69,90,20,2.06,US,1675235840
24,rikitea,-23.1203,-134.9692,25.76,76,16,6.89,PF,1675236022
25,broken hill,-31.95,141.4333,27.24,28,0,4.35,AU,1675236023
26,guiberoua,6.2392,-6.1727,20.99,92,9,0.18,CI,1675236023
27,cabo san lucas,22.8909,-109.9124,17.56,80,38,3.48,MX,1675236024
28,castro,-24.7911,-50.0119,17.25,99,100,1.09,BR,1675236024
29,jamestown,42.097,-79.2353,-7.23,85,100,3.09,US,1675235886
30,tuktoyaktuk,69.4541,-133.0374,-33.89,100,12,0.87,CA,1675236026
31,hilo,19.7297,-155.09,25.16,82,20,2.68,US,1675235831
32,oyama,36.3,139.8,14.21,27,5,1.52,JP,1675236027
33,mar del plata,-38.0023,-57.5575,20.61,90,100,4.02,AR,1675236028
34,souillac,-20.5167,57.5167,29.21,74,75,4.63,MU,1675236028
35,kununurra,-15.7667,128.7333,27.99,89,40,2.06,AU,1675236029
36,havoysund,70.9963,24.6622,1.13,79,100,10.45,NO,1675236029
37,muravlenko,63.7898,74.523,-9.08,92,100,7.97,RU,1675236030
38,bengkulu,-3.8004,102.2655,28.79,71,95,5.3,ID,1675236030
39,puerto ayora,-0.7393,-90.3518,23.64,91,15,0.45,EC,1675236031
40,dandong,40.1292,124.3947,-1.42,34,4,7.75,CN,1675236032
41,bredasdorp,-34.5322,20.0403,23.53,65,83,4.7,ZA,1675236032
42,lakota,5.8528,-5.6883,21.12,90,55,0.58,CI,1675236033
43,cape town,-33.9258,18.4232,24.51,75,75,5.66,ZA,1675235882
44,tasiilaq,65.6145,-37.6368,-9.91,65,100,4.7,GL,1675236034
45,vilyuysk,63.7553,121.6247,-28.74,97,100,3.77,RU,1675236035
46,qaanaaq,77.484,-69.3632,-21.22,53,97,3.5,GL,1675236035
47,port hedland,-20.3167,118.5667,35.03,52,14,7.72,AU,1675236036
48,zhezkazgan,47.8043,67.7144,-12.01,85,20,5.0,KZ,1675236036
49,tuy hoa,13.0833,109.3,24.45,82,98,3.46,VN,1675236037
50,ketchikan,55.3422,-131.6461,4.99,93,100,2.57,US,1675236038
51,talnakh,69.4865,88.3972,-14.33,95,100,4.92,RU,1675236038
52,avarua,-21.2078,-159.775,27.03,74,75,6.17,CK,1675236038
53,mataura,-46.1927,168.8643,16.67,99,100,1.1,NZ,1675236039
54,byron bay,-28.65,153.6167,27.19,81,82,3.27,AU,1675236040
55,klaksvik,62.2266,-6.589,2.51,87,100,8.26,FO,1675236040
56,morondava,-20.2833,44.2833,27.74,77,99,2.87,MG,1675236041
57,airai,-8.9266,125.4092,20.33,85,100,1.19,TL,1675236041
58,am timan,11.0297,20.2827,27.72,15,6,2.91,TD,1675236042
59,ilulissat,69.2167,-51.1,-16.99,55,20,0.51,GL,1675236042
60,bontang,0.1333,117.5,26.56,84,100,1.39,ID,1675236043
61,hobart,-42.8794,147.3294,18.48,43,20,7.72,AU,1675235868
62,puerto colombia,10.9878,-74.9547,25.05,78,6,10.59,CO,1675236044
63,upernavik,72.7868,-56.1549,-20.72,95,100,1.03,GL,1675235753
64,sumbe,-11.2061,13.8437,26.28,80,100,0.57,AO,1675236044
65,vardo,70.3705,31.1107,0.99,80,75,12.86,NO,1675236045
66,sioux lookout,50.1001,-91.917,-26.96,76,20,1.54,CA,1675236045
67,port alfred,-33.5906,26.891,25.1,79,2,2.24,ZA,1675236046
68,barrow,71.2906,-156.7887,-20.99,77,0,10.29,US,1675235979
69,chuy,-33.6971,-53.4616,20.93,94,4,2.19,UY,1675236047
70,butaritari,3.0707,172.7902,26.94,78,11,8.25,KI,1675236047
71,carnarvon,-24.8667,113.6333,26.82,72,100,6.45,AU,1675236048
72,orel-izumrud,43.4583,39.9244,7.01,87,100,2.0,RU,1675236048
73,dikson,73.5069,80.5464,-19.58,87,100,4.43,RU,1675236049
74,kodiak,57.79,-152.4072,2.73,87,100,2.06,US,1675236029
75,jesus maria,-30.9815,-64.0942,26.95,69,98,1.62,AR,1675236050
76,georgetown,5.4112,100.3354,30.97,72,20,4.12,MY,1675236050
77,shelburne,44.0787,-80.2041,-12.75,96,7,3.98,CA,1675236051
78,mayfield,36.7417,-88.6367,-4.05,76,100,3.23,US,1675236052
79,yerbogachen,61.2767,108.0108,-20.08,95,100,2.19,RU,1675236052
80,saint-pierre,-21.3393,55.4781,30.1,65,75,8.75,RE,1675235869
81,husavik,66.0449,-17.3389,-1.96,94,100,4.37,IS,1675236053
82,kapaa,22.0752,-159.319,22.18,90,0,2.57,US,1675236054
83,pandan,14.0453,124.1694,26.46,87,1,5.08,PH,1675236054
84,albany,42.6001,-73.9662,-6.7,60,100,0.74,US,1675236030
85,matara,5.9485,80.5353,30.91,59,88,3.19,LK,1675236055
86,mount isa,-20.7333,139.5,31.87,45,100,2.57,AU,1675236056
87,pangkalanbuun,-2.6833,111.6167,28.93,79,100,1.37,ID,1675236057
88,lalmohan,22.3384,90.7419,26.87,41,67,5.74,BD,1675236057
89,bethel,41.3712,-73.414,-2.21,61,100,2.06,US,1675235803
90,vila franca do campo,37.7167,-25.4333,13.23,82,97,3.02,PT,1675236058
91,kurduvadi,18.0833,75.4333,28.61,29,65,6.24,IN,1675236059
92,cherskiy,68.75,161.3,-23.67,100,79,2.67,RU,1675236059
93,palo negro,10.1739,-67.5419,17.36,85,0,1.6,VE,1675236061
94,leningradskiy,69.3833,178.4167,-16.28,96,100,4.01,RU,1675236061
95,piranhas,-16.4269,-51.8222,21.45,90,100,0.49,BR,1675236062
96,kolchugino,56.3,39.3833,-2.53,96,100,3.35,RU,1675236062
97,haines junction,60.7522,-137.5108,-15.06,99,98,0.75,CA,1675236063
98,bubaque,11.2833,-15.8333,24.99,47,54,6.08,GW,1675236063
99,napier,-39.4833,176.9167,19.04,89,100,5.81,NZ,1675236064
100,xingyi,24.1877,102.817,25.27,20,0,5.22,CN,1675236065
101,half moon bay,37.4636,-122.4286,10.13,52,0,0.0,US,1675236051
102,novoanninskiy,50.5287,42.6747,-0.84,96,83,4.29,RU,1675236066
103,sinnamary,5.3833,-52.95,23.37,89,99,1.64,GF,1675236066
104,flinders,-34.5833,150.8552,24.47,69,56,3.89,AU,1675236067
105,jalu,29.0331,21.5482,11.94,71,5,5.85,LY,1675236067
106,urengoy,65.9667,78.3667,-11.22,94,100,7.68,RU,1675236068
107,port moresby,-9.4431,147.1797,29.68,74,40,5.14,PG,1675236068
108,dicabisagan,17.0818,122.4157,25.75,77,67,2.39,PH,1675236069
109,khandyga,62.6667,135.6,-33.95,96,100,1.22,RU,1675236070
110,madimba,-10.4,40.3333,30.62,70,40,5.14,TZ,1675236070
111,naze,28.3667,129.4833,20.51,65,97,6.37,JP,1675236071
112,aiquile,-18.2041,-65.1807,12.87,90,100,0.93,BO,1675236071
113,mopti,14.6667,-4.0,17.14,11,100,4.01,ML,1675236072
114,kovernino,57.1253,43.8142,-4.54,95,100,4.16,RU,1675236072
115,luganville,-15.5333,167.1667,27.31,81,17,1.82,VU,1675236073
116,olafsvik,64.8945,-23.7142,-1.61,87,100,5.04,IS,1675236074
117,kapoeta,4.7717,33.5903,30.75,32,89,8.85,SS,1675236074
118,vila velha,-20.3297,-40.2925,21.97,94,0,1.54,BR,1675236075
119,magadan,59.5667,150.8,-12.48,95,100,2.68,RU,1675236075
120,mahesana,23.6,72.4,26.36,17,12,5.54,IN,1675236076
121,esperance,-33.8667,121.9,18.62,58,20,7.09,AU,1675236077
122,deputatskiy,69.3,139.9,-30.33,96,99,2.34,RU,1675236077
123,derzhavinsk,51.1,66.3167,-13.18,85,10,3.86,KZ,1675236078
124,broome,42.2506,-75.833,-7.39,81,100,1.54,US,1675236079
125,japura,-0.3167,102.35,30.73,62,100,1.93,ID,1675236079
126,agen,44.2,0.6333,5.87,93,75,2.06,FR,1675236080
127,port macquarie,-31.4333,152.9167,26.61,71,37,3.08,AU,1675235939
128,sturgeon bay,44.8342,-87.377,-13.78,66,0,5.14,US,1675235983
129,port blair,11.6667,92.75,30.02,70,20,4.63,IN,1675236081
130,dunedin,-45.8742,170.5036,17.78,91,100,5.4,NZ,1675236082
131,nouadhibou,20.931,-17.0347,14.99,72,100,9.77,MR,1675236062
132,laguna,38.421,-121.4238,7.27,74,0,2.06,US,1675235972
133,port elizabeth,-33.918,25.5701,26.17,83,20,8.75,ZA,1675236083
134,nantucket,41.2835,-70.0995,-0.92,59,100,6.17,US,1675236084
135,amudat,1.95,34.95,27.46,29,0,1.02,UG,1675236084
136,turukhansk,65.8167,87.9833,-14.55,93,100,5.36,RU,1675236085
137,norman wells,65.282,-126.8329,-31.98,75,75,2.06,CA,1675236086
138,torbay,47.6666,-52.7314,-3.01,91,100,10.73,CA,1675236086
139,bay saint louis,30.3088,-89.33,18.05,100,100,4.24,US,1675236087
140,bluff,-46.6,168.3333,15.88,96,100,2.52,NZ,1675236087
141,kavieng,-2.5744,150.7967,28.77,69,95,4.31,PG,1675236088
142,rio gallegos,-51.6226,-69.2181,13.03,58,0,3.6,AR,1675236089
143,baiyin,36.5583,104.2081,-1.38,23,100,2.75,CN,1675236089
144,narsaq,60.9167,-46.05,-7.88,93,100,3.1,GL,1675236090
145,itoman,26.1247,127.6694,23.21,60,75,7.2,JP,1675236091
146,victoria,22.2855,114.1577,24.03,76,84,3.58,HK,1675235890
147,khromtau,50.2503,58.4347,-15.24,83,5,3.39,KZ,1675236091
148,ribeira grande,38.5167,-28.7,12.22,66,20,5.14,PT,1675236092
149,ancud,-41.8697,-73.8203,8.49,89,26,1.19,CL,1675236093
150,arraial do cabo,-22.9661,-42.0278,23.9,90,100,9.89,BR,1675236093
151,lyngseidet,69.5763,20.2189,-5.0,93,97,2.74,NO,1675236094
152,scottsbluff,41.8666,-103.6672,-3.38,70,0,2.06,US,1675236095
153,east london,-33.0153,27.9116,30.52,62,0,2.57,ZA,1675236095
154,ponta do sol,32.6667,-17.1,15.35,63,13,3.71,PT,1675236096
155,tautira,-17.7333,-149.15,27.21,77,32,7.28,PF,1675236096
156,tzucacab,20.0667,-89.05,19.72,99,30,1.04,MX,1675236097
157,sitka,57.0531,-135.33,3.94,87,100,2.06,US,1675236097
158,ferkessedougou,9.6,-5.2,21.41,16,39,2.46,CI,1675236098
159,thompson,55.7435,-97.8558,-35.91,75,75,1.54,CA,1675236098
160,tuatapere,-46.1333,167.6833,16.39,98,100,0.61,NZ,1675236099
161,adrar,20.5022,-10.0711,13.71,16,100,4.63,MR,1675236100
162,san quintin,30.4833,-115.95,12.44,66,94,1.51,MX,1675236100
163,balikpapan,-1.2675,116.8289,28.55,79,20,1.03,ID,1675236100
164,saint george,37.1041,-113.5841,-1.67,50,0,0.45,US,1675236101
165,erenhot,43.6475,111.9767,-9.25,32,3,3.56,CN,1675236101
166,cacaotepec,17.1333,-96.8,11.04,88,1,1.84,MX,1675236102
167,tutoia,-2.7619,-42.2744,25.01,91,84,4.22,BR,1675236103
168,katsuura,35.1333,140.3,12.69,61,100,12.62,JP,1675236079
169,pevek,69.7008,170.3133,-14.96,88,99,0.57,RU,1675236103
170,saint-philippe,-21.3585,55.7679,30.06,84,100,4.9,RE,1675236044
171,wichita,37.6922,-97.3375,-7.16,71,40,2.06,US,1675235437
172,the valley,18.217,-63.0578,24.5,69,1,7.64,AI,1675236104
173,capaci,38.1711,13.2393,9.03,70,0,2.06,IT,1675236105
174,kyshtovka,56.555,76.6271,-13.3,89,13,3.23,RU,1675236105
175,ostrovnoy,68.0531,39.5131,-6.02,96,91,2.94,RU,1675236106
176,puerto escondido,15.85,-97.0667,23.81,69,0,1.99,MX,1675236107
177,tilichiki,60.4667,166.1,-12.07,93,100,3.25,RU,1675236107
178,aklavik,68.2191,-135.0107,-35.29,100,77,2.65,CA,1675236108
179,lebu,-37.6167,-73.65,12.98,89,10,7.54,CL,1675236108
180,hermanus,-34.4187,19.2345,21.0,80,25,3.35,ZA,1675236109
181,wamba,8.9333,8.6,25.5,17,59,0.96,NG,1675236109
182,chernushka,56.5072,56.0766,-7.88,93,92,4.46,RU,1675236110
183,huarmey,-10.0681,-78.1522,21.59,80,100,2.06,PE,1675236110
184,vao,-22.6667,167.4833,26.27,79,100,6.09,NC,1675236111
185,sibu,2.3,111.8167,28.17,78,40,1.03,MY,1675236112
186,saiha,22.4833,92.9667,30.44,13,64,2.05,IN,1675236112
187,ilinskiy,55.619,38.1182,0.29,86,100,3.13,RU,1675236113
188,port lincoln,-34.7333,135.8667,18.36,57,6,7.71,AU,1675236113
189,bowral,-34.4667,150.4167,21.7,58,0,3.19,AU,1675236114
190,srednekolymsk,67.45,153.6833,-30.83,96,87,0.37,RU,1675236114
191,jackson,42.4165,-122.8345,0.47,60,0,2.06,US,1675236115
192,nouakchott,18.0858,-15.9785,15.96,40,56,5.71,MR,1675236116
193,la paz,-16.5,-68.15,6.99,93,100,5.14,BO,1675235808
194,hanmer springs,-42.5167,172.8167,19.87,74,97,1.88,NZ,1675236117
195,lodja,-3.4833,23.4333,24.97,76,97,2.21,CD,1675236117
196,leshukonskoye,64.8989,45.7622,-3.54,90,100,5.35,RU,1675236118
197,itaqui,-29.1253,-56.5531,22.96,48,0,2.97,BR,1675236118
198,cidreira,-30.1811,-50.2056,23.15,92,0,0.19,BR,1675236119
199,lagoa,39.05,-27.9833,13.66,69,11,4.38,PT,1675236120
200,san carlos de bariloche,-41.1456,-71.3082,11.86,62,0,3.6,AR,1675236120
201,fort nelson,58.8053,-122.7002,-17.23,84,100,2.06,CA,1675236121
202,romny,50.751,33.4747,-1.09,96,100,3.01,UA,1675236121
203,filadelfia,39.9523,-75.1638,1.65,70,100,2.57,US,1675235891
204,hofn,64.2539,-15.2082,-2.02,62,99,4.46,IS,1675236122
205,abha,18.2164,42.5053,18.14,24,0,5.66,SA,1675236123
206,flin flon,54.7682,-101.865,-32.46,99,30,2.32,CA,1675236123
207,kudahuvadhoo,2.6708,72.8944,26.96,76,100,5.9,MV,1675236124
208,pacific grove,36.6177,-121.9166,7.03,81,0,2.06,US,1675236125
209,oskaloosa,41.2964,-92.6444,-9.68,92,0,3.09,US,1675236125
210,kyren,51.6828,102.1408,-8.18,73,10,0.38,RU,1675236126
211,liverpool,53.4106,-2.9779,9.05,77,75,11.83,GB,1675236127
212,baykit,61.67,96.37,-15.38,96,94,0.72,RU,1675236128
213,suifenhe,44.4,131.1667,-10.41,70,82,3.96,CN,1675236128
214,karakol,42.4907,78.3936,-0.61,68,14,0.71,KG,1675236129
215,povenets,62.8487,34.8262,-9.08,97,100,2.66,RU,1675236129
216,pangai,-19.8,-174.35,27.62,78,100,4.19,TO,1675236130
217,nizhnyaya omka,55.4338,74.9426,-13.94,90,13,2.83,RU,1675236130
218,taoudenni,22.6783,-3.9836,11.44,25,34,5.68,ML,1675236131
219,sao filipe,14.8961,-24.4956,21.31,71,14,5.64,CV,1675236131
220,gamba,-2.65,10.0,25.33,86,29,2.69,GA,1675236132
221,saint paul,44.9444,-93.0933,-12.87,66,0,2.57,US,1675236057
222,tessalit,20.1986,1.0114,14.66,13,6,2.77,ML,1675236132
223,nanortalik,60.1432,-45.2371,-8.59,78,85,4.43,GL,1675236133
224,goderich,43.7501,-81.7165,-6.72,73,100,7.72,CA,1675236133
225,calvinia,-31.4707,19.776,19.9,42,0,2.57,ZA,1675236134
226,beyneu,45.3167,55.2,4.37,67,100,7.48,KZ,1675236134
227,piacabucu,-10.4056,-36.4344,24.29,82,98,1.68,BR,1675236135
228,aswan,24.0934,32.907,12.61,40,0,2.06,EG,1675236136
229,bang saphan,11.2126,99.5117,30.01,46,76,3.69,TH,1675236136
230,taksimo,56.3444,114.8794,-14.14,75,97,1.71,RU,1675236137
231,iwanai,42.9744,140.5089,-1.01,93,100,2.8,JP,1675236137
232,lompoc,34.6391,-120.4579,6.99,91,0,0.0,US,1675236138
233,provideniya,64.3833,-173.3,-6.37,98,100,1.33,RU,1675236138
234,malinovoye ozero,51.6753,79.7825,-8.48,84,84,1.72,RU,1675236139
235,codrington,-38.2667,141.9667,16.7,46,98,5.18,AU,1675236140
236,quang ngai,15.1167,108.8,25.18,75,40,2.83,VN,1675236140
237,lorengau,-2.0226,147.2712,28.33,74,79,3.95,PG,1675236141
238,jinotega,13.0917,-86.0018,15.86,97,49,2.63,NI,1675236141
239,rzeszow,50.0413,21.999,2.01,87,75,6.17,PL,1675236142
240,lower hutt,-41.2167,174.9167,21.29,49,75,3.6,NZ,1675236143
241,mackay,-21.15,149.2,30.93,84,100,4.87,AU,1675236144
242,beringovskiy,63.05,179.3167,-7.35,98,80,3.25,RU,1675236144
243,cabedelo,-6.9811,-34.8339,25.37,76,97,4.49,BR,1675235994
244,inhambane,-23.865,35.3833,27.83,56,53,4.36,MZ,1675236145
245,manakara,-22.1333,48.0167,23.37,86,100,1.61,MG,1675236146
246,kuala terengganu,5.3302,103.1408,28.32,78,40,3.09,MY,1675236147
247,lima,-12.0432,-77.0282,23.28,79,100,2.57,PE,1675235843
248,lasa,46.6166,10.7002,2.49,94,50,3.34,IT,1675236148
249,toora-khem,52.4675,96.11,-11.61,85,73,0.69,RU,1675236148
250,kavaratti,10.5669,72.642,26.46,77,48,6.28,IN,1675236149
251,zhangye,38.9342,100.4517,-1.44,31,100,0.54,CN,1675236149
252,palmer,42.1584,-72.3287,-3.25,53,100,3.6,US,1675236150
253,mayo,38.8876,-76.5119,2.77,89,100,2.24,US,1675236150
254,kazanskaya,45.4106,40.4361,2.71,87,99,1.45,RU,1675236151
255,samarai,-10.6167,150.6667,28.83,74,100,1.69,PG,1675236151
256,kangema,-0.6833,36.9667,22.66,45,0,1.97,KE,1675236152
257,santa isabel do rio negro,-0.4139,-65.0192,22.39,96,98,0.58,BR,1675236153
258,arman,59.7,150.1667,-12.21,95,100,2.31,RU,1675236154
259,quime,-16.9833,-67.2167,11.28,99,100,2.36,BO,1675236154
260,rosetta,31.4044,30.4164,12.89,80,85,14.54,EG,1675236155
261,alofi,-19.0595,-169.9187,23.94,100,100,2.57,NU,1675236155
262,kiunga,-6.1219,141.2906,29.02,78,100,1.83,PG,1675236156
263,beloha,-25.1667,45.05,25.74,64,73,7.23,MG,1675236156
264,inta,66.0317,60.1659,-4.45,80,64,9.16,RU,1675236157
265,gorontalo,0.5412,123.0595,29.05,77,100,2.73,ID,1675236157
266,qasigiannguit,68.8193,-51.1922,-16.86,96,100,1.29,GL,1675236158
267,khash,28.2211,61.2158,13.59,34,0,9.34,IR,1675236158
268,andenes,69.3143,16.1194,0.52,93,100,2.06,NO,1675236159
269,piney green,34.716,-77.3202,14.54,100,100,0.0,US,1675236159
270,mongo,12.1844,18.693,25.79,17,73,3.37,TD,1675236160
271,gunjur,13.2019,-16.7339,17.04,67,0,3.09,GM,1675236161
272,san patricio,28.017,-97.5169,3.24,85,100,5.67,US,1675236161
273,emba,48.8264,58.1442,-9.02,76,33,5.03,KZ,1675236162
274,puerto carreno,6.189,-67.4859,23.08,56,5,5.83,CO,1675236162
275,coari,-4.085,-63.1414,22.48,98,100,1.28,BR,1675236163
276,kloulklubed,7.0419,134.2556,28.28,82,98,9.43,PW,1675236163
277,zheleznodorozhnyy,55.7503,38.0042,0.34,89,100,2.7,RU,1675235970
278,trincomalee,8.5711,81.2335,23.78,95,100,10.66,LK,1675236164
279,fairbanks,64.8378,-147.7164,-9.67,80,100,2.57,US,1675235898
280,texarkana,33.4251,-94.0477,1.8,86,100,2.68,US,1675236165
281,nemuro,43.3236,145.575,-1.48,87,100,4.69,JP,1675236166
282,villa carlos paz,-31.4241,-64.4978,21.05,90,88,0.89,AR,1675236166
283,babu,24.4167,111.5167,22.67,53,96,1.87,CN,1675236167
284,pitimbu,-7.4706,-34.8086,25.33,77,73,3.78,BR,1675236167
285,iquitos,-3.7481,-73.2472,25.02,88,40,2.06,PE,1675236168
286,koumac,-20.5667,164.2833,26.96,57,79,2.07,NC,1675236168
287,molochnoye,59.2917,39.6787,-2.68,91,100,5.14,RU,1675236169
288,sayyan,15.1718,44.3244,18.35,19,11,1.54,YE,1675236169
289,kupang,-10.1667,123.5833,30.32,79,75,5.14,ID,1675236170
290,zhigansk,66.7697,123.3711,-28.84,99,100,4.41,RU,1675236171
291,casablanca,33.5928,-7.6192,7.96,78,18,3.09,MA,1675235909
292,santa cruz,-17.8,-63.1667,22.7,100,75,5.14,BO,1675236172
293,araouane,18.9048,-3.5265,12.46,16,6,4.07,ML,1675236072
294,benguela,-12.5763,13.4055,25.6,81,80,1.41,AO,1675236172
295,waipawa,-41.4122,175.5153,18.6,88,99,5.62,NZ,1675236173
296,north myrtle beach,33.816,-78.68,15.77,98,75,4.12,US,1675236125
297,severo-kurilsk,50.6789,156.125,-5.44,83,54,3.78,RU,1675236174
298,lufilufi,-13.8745,-171.5986,25.88,72,100,5.86,WS,1675236174
299,mahebourg,-20.4081,57.7,29.58,74,75,4.63,MU,1675236175
300,isla mujeres,21.2311,-86.731,25.09,80,5,4.57,MX,1675236175
301,yar-sale,66.8333,70.8333,-8.6,93,100,6.41,RU,1675236176
302,vostok,46.4856,135.8833,-14.18,94,100,3.08,RU,1675236176
303,cockburn town,21.4612,-71.1419,24.5,73,100,8.38,TC,1675236177
304,chernyshevskiy,63.0128,112.4714,-29.32,97,69,1.5,RU,1675236177
305,warrnambool,-38.3833,142.4833,16.13,49,100,5.06,AU,1675236178
306,clyde river,70.4692,-68.5914,-35.87,68,0,2.06,CA,1675236178
307,nizhniy odes,63.6445,54.856,-4.93,92,100,5.27,RU,1675236179
308,parakou,9.3372,2.6303,22.91,13,72,1.69,BJ,1675236179
309,dingle,10.9995,122.6711,28.46,74,29,6.26,PH,1675236180
310,brae,60.3964,-1.353,6.62,75,99,11.85,GB,1675236180
311,tumen,42.9661,129.8425,-4.05,54,95,4.78,CN,1675236181
312,ranavav,21.6842,69.7408,25.89,38,91,8.23,IN,1675236181
313,fare,-16.7,-151.0167,27.49,75,62,7.57,PF,1675236182
314,nsanje,-16.92,35.262,30.01,58,23,1.79,MW,1675236182
315,chilca,-12.5211,-76.7372,21.64,84,100,1.9,PE,1675236183
316,esmeraldas,-19.7625,-44.3139,20.48,94,64,1.62,BR,1675236184
317,constitucion,-35.3333,-72.4167,12.12,79,0,2.46,CL,1675236184
318,wembley,-31.9333,115.8,33.11,32,0,7.72,AU,1675236085
319,yulara,-25.2406,130.9889,33.98,11,0,8.87,AU,1675236185
320,faanui,-16.4833,-151.75,27.68,74,100,7.57,PF,1675236186
321,sao manuel,-22.7311,-48.5706,18.81,98,100,0.76,BR,1675236187
322,svetlyy,54.675,20.1347,4.03,96,100,11.48,RU,1675236187
323,griffith,41.5284,-87.4237,-13.3,70,0,2.06,US,1675236188
324,paramonga,-10.6667,-77.8333,21.68,81,100,2.0,PE,1675236188
325,antalaha,-14.9003,50.2788,30.11,63,36,4.4,MG,1675236189
326,salalah,17.0151,54.0924,25.05,53,75,3.09,OM,1675236190
327,avera,33.194,-82.5271,16.03,93,100,3.44,US,1675236190
328,halifax,44.6453,-63.5724,-7.0,77,100,8.23,CA,1675236100
329,wilmington,34.2257,-77.9447,15.0,93,100,2.57,US,1675236077
330,pimentel,-6.8367,-79.9342,21.16,83,0,3.09,PE,1675236191
331,erdenet,49.0333,104.0833,-13.02,80,5,1.37,MN,1675236192
332,haimen,23.1935,116.6142,24.94,67,10,3.77,CN,1675236192
333,kingman,35.1894,-114.053,4.3,42,0,4.92,US,1675236193
334,hambantota,6.1241,81.1185,29.19,84,40,2.57,LK,1675236193
335,solnechnyy,50.7214,136.6319,-19.27,99,100,0.87,RU,1675236194
336,changping,40.2186,116.2197,2.8,13,71,3.81,CN,1675236194
337,sola,-13.8833,167.55,27.89,70,9,2.86,VU,1675236195
338,san jose,37.3394,-121.895,9.68,53,20,2.06,US,1675236196
339,ginda,30.6945,78.4932,16.39,16,0,2.88,IN,1675236197
340,bloomingdale,27.8936,-82.2404,20.01,75,75,0.0,US,1675236197
341,usakos,-22.0,15.6,22.07,44,100,0.34,NA,1675236087
342,manokwari,-0.8667,134.0833,28.2,72,89,2.69,ID,1675236198
343,baghdad,33.3406,44.4009,12.95,67,0,3.6,IQ,1675236027
344,chalus,36.655,51.4204,9.7,87,75,0.0,IR,1675236199
345,shimoda,34.6667,138.95,12.2,69,57,10.09,JP,1675236199
346,nokaneng,-19.6667,22.2667,20.31,88,100,1.15,BW,1675236200
347,kaitangata,-46.2817,169.8464,16.89,93,100,2.31,NZ,1675236201
348,matagami,49.7502,-77.6328,-18.94,78,100,1.54,CA,1675236201
349,kisangani,0.5167,25.2,25.27,73,99,1.26,CD,1675236202
350,leh,34.1667,77.5833,-10.04,64,17,0.3,IN,1675236202
351,altamont,42.2068,-121.7372,-2.84,75,0,1.54,US,1675236203
352,tura,25.5198,90.2201,28.33,25,0,2.96,IN,1675236203
353,hithadhoo,-0.6,73.0833,27.24,75,14,4.88,MV,1675236204
354,udachnyy,66.4167,112.4,-32.62,99,100,2.34,RU,1675236204
355,illapel,-31.6308,-71.1653,19.68,79,5,1.35,CL,1675235772
356,novi bilokorovychi,51.1155,28.0546,-1.4,95,100,5.01,UA,1675236205
357,los llanos de aridane,28.6585,-17.9182,12.29,76,100,4.12,ES,1675236206
358,high level,58.5169,-117.136,-21.94,77,0,4.12,CA,1675236206
359,fougamou,-1.2154,10.5838,23.83,92,47,1.74,GA,1675236207
360,yelizavetinskoye,45.0072,43.3494,3.28,77,70,2.49,RU,1675236207
361,chapais,49.7834,-74.8492,-18.12,93,100,3.31,CA,1675236208
362,talaja,21.35,72.05,22.97,40,100,7.24,IN,1675236208
363,ploufragan,48.4914,-2.7946,7.7,83,100,2.57,FR,1675236209
364,chokurdakh,70.6333,147.9167,-24.97,97,35,3.49,RU,1675236209
365,muzhi,65.3667,64.6667,-10.74,96,97,2.97,RU,1675236210
366,necochea,-38.5473,-58.7368,18.48,84,100,2.5,AR,1675236210
367,saldanha,-33.0117,17.9442,18.03,85,9,5.7,ZA,1675236211
368,esso,55.9333,158.7,-22.14,93,8,2.23,RU,1675236211
369,ishigaki,24.3448,124.1572,23.07,64,75,4.12,JP,1675236212
370,praia,14.9215,-23.5087,20.3,73,40,7.2,CV,1675236213
371,ranfurly,-45.1333,170.1,20.06,85,100,2.2,NZ,1675236213
372,chardara,41.2547,67.9692,2.7,84,100,3.06,KZ,1675236214
373,san cristobal,7.7669,-72.225,17.45,90,85,1.39,VE,1675236214
374,zhanaozen,43.3,52.8,4.35,63,100,4.77,KZ,1675236215
375,mecca,21.4267,39.8261,22.3,55,97,3.02,SA,1675236081
376,millau,44.0833,2.9167,3.07,97,80,1.95,FR,1675236216
377,galveston,29.3669,-94.9669,6.65,92,100,1.79,US,1675236189
378,basco,20.4487,121.9702,24.4,69,96,5.95,PH,1675236217
379,picayune,30.5255,-89.6795,13.77,96,100,3.02,US,1675236217
380,ballina,-28.8667,153.5667,27.23,86,83,3.32,AU,1675236218
381,ilava,48.9977,18.2353,3.68,84,100,4.82,SK,1675236218
382,alice springs,-23.7,133.8833,29.75,42,100,4.12,AU,1675236219
383,andujar,38.0392,-4.0508,3.35,48,0,1.77,ES,1675236220
384,antofagasta,-23.65,-70.4,20.6,85,100,1.41,CL,1675236065
385,ramhormoz,31.28,49.6035,14.31,82,100,2.73,IR,1675236221
386,sorland,67.667,12.6934,1.92,80,0,2.06,NO,1675236221
387,richards bay,-28.783,32.0377,26.37,74,99,6.14,ZA,1675236222
388,kangaatsiaq,68.3065,-53.4641,-20.46,96,76,3.15,GL,1675236223
389,fukue,32.6881,128.8419,14.2,62,75,4.12,JP,1675236223
390,tolaga bay,-38.3667,178.3,19.09,97,100,8.29,NZ,1675236224
391,methoni,36.8197,21.7049,7.34,56,0,3.97,GR,1675236224
392,marsh harbour,26.5412,-77.0636,23.19,76,0,3.57,BS,1675236225
393,hanzhong,33.0728,107.0303,16.2,21,96,2.5,CN,1675236150
394,waihi beach,-37.4,175.9333,22.72,98,65,5.81,NZ,1675236225
395,henties bay,-22.116,14.2845,17.97,84,100,1.84,NA,1675236226
396,lithakia,37.7167,20.8333,6.6,57,0,1.03,GR,1675236226
397,thinadhoo,0.5333,72.9333,27.4,73,67,5.45,MV,1675236227
398,mikhaylovskoye,51.8239,79.7172,-9.47,86,83,1.37,RU,1675236228
399,port pirie,-33.1833,138.0167,22.76,57,1,7.63,AU,1675236228
400,batagay-alyta,67.8006,130.4114,-24.35,100,100,1.2,RU,1675236229
401,finschhafen,-6.6024,147.8681,29.68,77,100,7.29,PG,1675236229
402,rumonge,-3.9736,29.4386,24.84,70,15,0.83,BI,1675236230
403,ust-kuyga,70.0167,135.6,-26.63,97,100,4.07,RU,1675236230
404,asau,46.4333,26.4,1.51,84,100,3.15,RO,1675236231
405,pasni,25.2631,63.471,20.92,45,0,2.25,PK,1675236231
406,hailey,43.5196,-114.3153,-17.08,79,0,2.06,US,1675236232
407,santa maria,-29.6842,-53.8069,20.77,69,0,1.35,BR,1675236233
408,pisco,-13.7,-76.2167,23.03,78,0,2.06,PE,1675236233
409,ambulu,-8.345,113.6058,29.19,69,100,2.65,ID,1675236234
410,morgan city,29.6994,-91.2068,12.79,93,100,3.09,US,1675236235
411,jumla,29.2747,82.1838,12.6,15,0,2.16,NP,1675236235
412,kiknur,57.3034,47.2011,-7.01,94,60,4.57,RU,1675236236
413,geraldton,-28.7667,114.6,31.23,42,0,11.32,AU,1675236236
414,oussouye,12.485,-16.5469,19.05,38,97,3.59,SN,1675236237
415,labuhan,-6.8844,112.2051,28.27,79,100,5.31,ID,1675236238
416,sawakin,19.1059,37.3321,23.98,79,100,7.23,SD,1675236238
417,west bay,19.3667,-81.4167,25.56,84,6,1.79,KY,1675236017
418,tondon,10.3667,-13.35,19.7,74,27,0.95,GN,1675236239
419,namibe,-15.1961,12.1522,23.13,76,94,1.27,AO,1675236239
420,channel-port aux basques,47.5702,-59.1367,-7.06,73,99,7.64,CA,1675236240
421,tukrah,32.5341,20.5791,13.8,55,78,8.63,LY,1675236240
422,gurupa,-1.405,-51.64,22.34,98,95,1.22,BR,1675236241
423,maputo,-25.9653,32.5892,22.82,94,100,2.06,MZ,1675236242
424,stroitel,50.7854,36.4831,-2.1,93,100,2.0,RU,1675236242
425,isangel,-19.55,169.2667,27.77,76,63,1.19,VU,1675236168
426,chara,56.9064,118.2631,-18.12,80,100,1.51,RU,1675236243
427,korla,41.7597,86.1469,-2.59,55,7,0.94,CN,1675236244
428,ndele,8.4109,20.6473,29.46,16,4,1.08,CF,1675236245
429,mangrol,21.1167,70.1167,26.09,38,100,4.75,IN,1675236245
430,severo-yeniseyskiy,60.3725,93.0408,-12.98,90,100,1.48,RU,1675236246
431,tarsus,36.9188,34.8784,8.93,58,75,2.73,TR,1675236247
432,sept-iles,50.2001,-66.3821,-19.0,59,0,2.06,CA,1675236247
433,touros,-5.1989,-35.4608,25.93,73,62,5.84,BR,1675236248
434,managua,12.1328,-86.2504,23.69,78,75,6.46,NI,1675236248
435,saratoga springs,43.0831,-73.7846,-7.27,63,100,1.51,US,1675236249
436,santarem,-2.4431,-54.7083,24.07,94,75,1.03,BR,1675236250
437,diamantino,-14.4086,-56.4461,21.81,96,100,1.47,BR,1675236250
438,parabel,58.6978,81.4825,-11.5,90,20,2.88,RU,1675236251
439,alakurtti,66.9672,30.3491,-16.51,99,68,1.37,RU,1675236251
440,gunnedah,-30.9833,150.25,32.52,24,100,1.51,AU,1675236252
441,klaeng,12.7797,101.6483,34.08,34,95,3.17,TH,1675236252
442,awjilah,29.1081,21.2869,11.92,71,8,6.63,LY,1675236253
443,caravelas,-17.7125,-39.2481,22.38,90,100,1.92,BR,1675236253
444,medvezhyegorsk,62.9167,34.4667,-8.24,97,100,2.47,RU,1675236254
445,pietarsaari,63.65,22.6833,-4.44,99,96,2.12,FI,1675236254
446,marystown,47.1666,-55.1483,-6.88,82,81,7.78,CA,1675236255
447,miajadas,39.1513,-5.9084,0.82,79,0,1.0,ES,1675236256
448,hasaki,35.7333,140.8333,12.38,49,95,12.74,JP,1675236256
449,bara,10.3744,10.7288,23.06,20,67,2.37,NG,1675236257
450,mount gambier,-37.8333,140.7667,17.17,43,93,4.54,AU,1675236195
451,dakar,14.6937,-17.4441,17.49,79,60,8.05,SN,1675235965
452,sosua,19.7667,-70.5167,20.13,76,71,4.1,DO,1675236013
453,kargasok,59.0556,80.8572,-11.19,89,31,3.12,RU,1675236258
454,sao joao del rei,-21.1356,-44.2617,18.44,94,100,0.88,BR,1675236259
455,freeport,40.6576,-73.5832,0.29,62,100,5.14,US,1675236260
456,sao jose da coroa grande,-8.8978,-35.1478,24.68,83,97,2.25,BR,1675236260
457,golden,39.7555,-105.2211,-5.85,71,0,3.09,US,1675236261
458,rabo de peixe,37.8,-25.5833,12.73,76,20,3.09,PT,1675236261
459,okhotsk,59.3833,143.3,-17.64,97,100,4.95,RU,1675236262
460,hobyo,5.3505,48.5268,26.51,62,21,7.88,SO,1675236262
461,crossville,35.949,-85.0269,0.83,97,100,3.09,US,1675236263
462,merauke,-8.4667,140.3333,29.14,75,100,4.75,ID,1675236263
463,koroni,36.8,21.95,7.26,57,0,3.08,GR,1675236264
464,comodoro rivadavia,-45.8667,-67.5,18.92,39,0,5.14,AR,1675236264
465,nichinan,31.6,131.3667,19.82,66,90,7.62,JP,1675236264
466,iracoubo,5.4802,-53.2011,23.28,88,34,1.59,GF,1675236265
467,saint anthony,45.0205,-93.218,-13.22,74,0,3.09,US,1675236266
468,lancaster,40.2504,-76.2499,0.64,86,100,2.33,US,1675235691
469,dumesti,47.1833,27.35,1.0,87,95,2.89,RO,1675236266
470,maragogi,-9.0122,-35.2225,24.5,83,100,1.89,BR,1675236267
471,acapulco,16.8634,-99.8901,22.9,83,20,2.06,MX,1675236171
472,arrecife,28.963,-13.5477,15.99,67,0,1.03,ES,1675236267
473,portland,45.5234,-122.6762,2.32,78,40,1.54,US,1675235931
474,bambous virieux,-20.3428,57.7575,30.12,74,75,4.63,MU,1675236268
475,bardiyah,31.7561,25.0865,13.25,60,8,10.06,LY,1675236269
476,spencer,43.1414,-95.1444,-11.98,74,0,3.6,US,1675236248
477,mumford,5.2618,-0.759,25.49,84,98,1.42,GH,1675236269
478,niquelandia,-14.4739,-48.4597,19.77,90,29,1.01,BR,1675236270
479,huinan,42.6225,126.2614,-6.44,92,100,5.73,CN,1675236270
480,santa ines,-3.6667,-45.38,22.44,99,100,1.06,BR,1675236271
481,muttupet,10.4,79.4833,24.92,78,100,6.84,IN,1675236272
482,gat,31.61,34.7642,13.77,100,39,9.97,IL,1675236272
483,jibuti,11.5,42.5,23.43,48,51,7.8,DJ,1675236273
484,dennery,13.8996,-60.8879,24.03,74,0,4.63,LC,1675236273
485,porto novo,6.4965,2.6036,24.9,85,3,1.17,BJ,1675236274
486,san luis,-33.295,-66.3356,19.77,80,59,3.64,AR,1675235982
487,luis correia,-2.8792,-41.6669,24.62,90,100,4.52,BR,1675236063
488,coquimbo,-29.9533,-71.3436,16.85,94,75,0.51,CL,1675236065
489,ergani,38.2653,39.7621,2.89,84,100,1.65,TR,1675236275
490,rio grande,-32.035,-52.0986,23.08,85,0,2.28,BR,1675236276
491,putina,-15.4667,-69.4333,7.55,84,100,3.59,PE,1675236276
492,dargaville,-35.9333,173.8833,21.59,85,99,1.75,NZ,1675236277
493,syava,58.0146,46.3222,-5.23,94,100,4.27,RU,1675236278
494,progreso,21.2833,-89.6667,22.84,83,11,4.04,MX,1675236278
495,shakawe,-18.3667,21.85,21.37,84,100,2.27,BW,1675236279
496,nador,35.174,-2.9287,5.14,87,0,1.54,MA,1675236279
497,murray bridge,-35.1167,139.2667,18.96,59,73,7.08,AU,1675236235
498,black river,18.0264,-77.8487,21.99,84,1,2.97,JM,1675236280
499,canora,51.6333,-102.4343,-21.99,100,69,1.36,CA,1675236280
500,te anau,-45.4167,167.7167,16.85,97,100,0.41,NZ,1675236281
501,barraute,48.4335,-77.6328,-17.85,98,76,2.16,CA,1675236281
502,pakokku,21.3333,95.1,31.57,36,1,2.0,MM,1675236282
503,xiuyan,40.2928,123.2744,-2.37,30,1,8.89,CN,1675236282
504,adre,13.4667,22.2,23.65,17,21,6.54,TD,1675236283
505,pangnirtung,66.1451,-65.7125,-31.71,76,94,2.03,CA,1675236283
506,batemans bay,-35.7167,150.1833,22.83,75,99,2.67,AU,1675236284
507,den helder,52.9599,4.7593,7.21,79,40,10.8,NL,1675236201
508,coatzacoalcos,18.15,-94.4167,23.15,86,1,3.11,MX,1675236285
509,boromo,11.75,-2.9333,20.92,8,44,2.68,BF,1675236285
510,carndonagh,55.25,-7.2667,7.79,86,100,9.86,IE,1675236286
511,auki,-8.7676,160.7034,27.84,78,13,4.38,SB,1675236286
512,tezu,27.9167,96.1667,29.04,21,77,1.71,IN,1675236287
513,manono,-7.3,27.4167,24.31,83,40,0.64,CD,1675236287
514,kirakira,-10.4544,161.9205,28.0,79,47,2.87,SB,1675236288
515,oranjemund,-28.55,16.4333,19.77,72,88,4.07,NA,1675236288
516,sao miguel do araguaia,-13.275,-50.1628,21.04,93,8,1.41,BR,1675236289
517,manicore,-5.8092,-61.3003,22.2,98,99,0.99,BR,1675236094
518,san matias,-16.3667,-58.4,22.24,98,100,1.86,BO,1675236289
519,junagadh,21.5167,70.4667,26.21,27,100,4.95,IN,1675236290
520,muzaffargarh,30.0754,71.1921,20.01,26,0,1.46,PK,1675236291
521,kamenka,51.3223,42.7678,-2.64,89,99,4.71,RU,1675236292
522,berbera,10.4396,45.0143,25.79,59,69,2.61,SO,1675236292
523,dingli,35.8614,14.3822,9.09,71,20,1.54,MT,1675236293
524,oriximina,-1.7656,-55.8661,22.6,93,100,1.08,BR,1675236121
525,tromso,69.6496,18.957,-0.99,93,75,1.03,NO,1675236293
526,coihaique,-45.5752,-72.0662,10.34,71,0,1.54,CL,1675236294
527,wladyslawowo,54.7909,18.4009,4.41,77,95,13.61,PL,1675236294
528,azul,-36.777,-59.8585,17.16,94,43,4.64,AR,1675236055
529,borgarnes,64.5383,-21.9206,-3.97,95,99,2.45,IS,1675236284
530,hami,42.8,93.45,-0.91,46,100,1.04,CN,1675236296
531,heihe,50.2441,127.4902,-10.68,69,10,5.78,CN,1675236296
532,pasaje,-3.3333,-79.8167,24.15,85,100,0.68,EC,1675236297
533,bac lieu,9.285,105.7244,30.34,57,86,2.51,VN,1675236297
534,opuwo,-18.0607,13.84,20.35,60,100,0.72,NA,1675236298
535,pryazha,61.6926,33.6216,-4.43,96,99,2.0,RU,1675236298
536,ambatondrazaka,-17.8333,48.4167,25.89,63,43,2.95,MG,1675236299
537,snasa,64.2457,12.3778,-3.33,99,98,1.06,NO,1675236299
538,myitkyina,25.3833,97.4,31.71,27,16,1.13,MM,1675236300
539,ajaccio,42.0,8.9167,3.03,81,100,3.09,FR,1675236301
540,salihorsk,52.7876,27.5415,-1.52,96,100,5.63,BY,1675236301
541,makakilo city,21.3469,-158.0858,24.2,85,20,2.57,US,1675236302
542,grants pass,42.439,-123.3284,1.27,77,0,0.0,US,1675236302
543,kabwe,-14.4469,28.4464,19.27,92,100,0.63,ZM,1675236303
544,atar,20.5169,-13.0499,17.52,23,100,2.58,MR,1675236303
545,opotiki,-38.0833,177.2833,20.77,98,100,5.69,NZ,1675236304
546,bathsheba,13.2167,-59.5167,23.34,83,20,3.09,BB,1675236305
547,taixing,32.1667,120.0136,9.36,47,1,9.47,CN,1675236305
548,kirkwall,58.9848,-2.9587,6.09,75,75,13.38,GB,1675236306
549,harper,4.375,-7.7169,25.5,85,57,1.76,LR,1675236306
550,emerald,-23.5333,148.1667,29.63,73,83,6.95,AU,1675236307
551,berlevag,70.8578,29.0864,0.0,93,100,11.83,NO,1675236307
552,nishihara,26.1842,127.7558,22.81,60,40,7.2,JP,1675236308
553,taltal,-25.4,-70.4833,20.03,83,67,0.4,CL,1675236020
554,aykhal,66.0,111.5,-31.19,100,28,2.78,RU,1675236308
555,veyrier,46.167,6.1844,2.67,91,20,0.51,CH,1675236309
556,awbari,26.5921,12.7805,6.61,41,10,2.33,LY,1675236310
557,camacha,33.0833,-16.3333,12.68,62,20,3.6,PT,1675236310
558,zhanakorgan,43.9098,67.2495,8.79,50,100,1.92,KZ,1675236311
559,mujiayingzi,42.1167,118.7833,-6.85,23,0,9.0,CN,1675236311
560,buala,-8.145,159.5921,27.91,75,93,3.57,SB,1675236312
561,yuncheng,35.0231,110.9928,8.27,17,100,6.76,CN,1675236312
