City_ID,City,Lat,Lng,Max Temp,Humidity,Cloudiness,Wind Speed,Country,Date
0,tabou,4.423,-7.3528,25.1,87,54,0.59,CI,1675234320
1,ribeira grande,38.5167,-28.7,12.1,81,100,2.24,PT,1675234321
2,avarua,-21.2078,-159.775,26.03,78,75,6.17,CK,1675234247
3,vaini,-21.2,-175.2,28.09,83,75,4.12,TO,1675234322
4,kapaa,22.0752,-159.319,23.18,91,20,3.09,US,1675234322
5,vila velha,-20.3297,-40.2925,22.97,88,0,1.54,BR,1675234323
6,menongue,-14.6585,17.691,19.48,86,100,1.27,AO,1675234324
7,lorengau,-2.0226,147.2712,28.33,74,79,3.95,PG,1675234324
8,bengkulu,-3.8004,102.2655,28.79,71,95,5.3,ID,1675234325
9,manavalakurichi,8.1333,77.3,29.42,61,100,2.42,IN,1675234326
10,pisco,-13.7,-76.2167,22.03,83,0,2.06,PE,1675234326
11,hermanus,-34.4187,19.2345,20.45,80,25,3.35,ZA,1675234328
12,kushmurun,52.4503,64.6311,-13.26,93,39,1.79,KZ,1675234329
13,albany,42.6001,-73.9662,-6.94,60,100,0.74,US,1675234332
14,mataura,-46.1927,168.8643,16.67,99,100,1.1,NZ,1675234333
15,puerto ayora,-0.7393,-90.3518,24.19,91,15,1.55,EC,1675234309
16,hamilton,39.1834,-84.5333,-4.48,72,75,2.57,US,1675234334
17,ikalamavony,-21.15,46.5833,23.63,76,90,3.85,MG,1675234335
18,port-gentil,-0.7193,8.7815,24.98,94,20,1.54,GA,1675234336
19,korla,41.7597,86.1469,-2.59,55,7,0.94,CN,1675234336
20,mitsamiouli,-11.3847,43.2844,28.13,74,92,3.79,KM,1675234338
21,makakilo city,21.3469,-158.0858,24.2,85,20,2.06,US,1675234339
22,hobart,-42.8794,147.3294,18.92,41,20,7.72,AU,1675234310
23,thompson,55.7435,-97.8558,-34.91,75,40,1.54,CA,1675234340
24,ngara,-2.5122,30.6558,20.31,64,17,0.77,TZ,1675234340
25,busselton,-33.65,115.3333,28.65,32,0,2.21,AU,1675234341
26,jamestown,42.097,-79.2353,-7.23,85,75,2.57,US,1675234342
27,rikitea,-23.1203,-134.9692,25.76,76,16,6.89,PF,1675234342
28,bluff,-46.6,168.3333,15.88,96,100,2.52,NZ,1675234343
29,punta arenas,-53.15,-70.9167,12.06,66,75,13.38,CL,1675234000
30,clemencia,10.5665,-75.325,23.65,81,6,4.37,CO,1675234344
31,nikolskoye,59.7035,30.7861,-0.05,87,100,2.42,RU,1675234344
32,tuktoyaktuk,69.4541,-133.0374,-39.0,74,0,2.06,CA,1675234345
33,dingle,10.9995,122.6711,28.46,74,29,6.26,PH,1675234346
34,yellowknife,62.456,-114.3525,-33.71,68,0,5.14,CA,1675233914
35,topeka,39.0483,-95.678,-6.61,71,0,2.57,US,1675234049
36,chapais,49.7834,-74.8492,-17.12,93,100,3.31,CA,1675234070
37,hithadhoo,-0.6,73.0833,27.24,75,14,4.88,MV,1675234347
38,barrow,71.2906,-156.7887,-20.99,77,0,11.83,US,1675234348
39,tarakan,3.3,117.6333,28.72,74,40,3.09,ID,1675234332
40,cape town,-33.9258,18.4232,23.38,78,75,6.69,ZA,1675234350
41,lockhart,28.6194,-81.4426,19.99,95,0,0.0,US,1675234350
42,chokurdakh,70.6333,147.9167,-24.97,97,35,3.49,RU,1675234351
43,cayenne,4.9333,-52.3333,23.02,100,75,0.51,GF,1675234351
44,wanning,18.8003,110.3967,23.85,77,91,4.08,CN,1675234352
45,luderitz,-26.6481,15.1594,19.94,64,1,5.87,NA,1675234352
46,chifeng,42.2683,118.9636,-6.06,21,0,8.47,CN,1675234353
47,kavieng,-2.5744,150.7967,28.77,69,95,4.31,PG,1675234353
48,flin flon,54.7682,-101.865,-32.46,99,30,2.32,CA,1675234354
49,vostok,46.4856,135.8833,-14.18,94,100,3.08,RU,1675234354
50,sakaiminato,35.55,133.2333,8.96,87,75,7.2,JP,1675234355
51,norman wells,65.282,-126.8329,-36.98,67,40,0.0,CA,1675234355
52,vanimo,-2.6741,141.3028,28.14,74,75,2.62,PG,1675234356
53,inuvik,68.3499,-133.7218,-31.44,71,20,1.03,CA,1675234356
54,ilulissat,69.2167,-51.1,-17.99,60,75,2.06,GL,1675234357
55,faanui,-16.4833,-151.75,27.68,74,100,7.57,PF,1675234092
56,katherine,-14.4667,132.2667,30.18,74,75,2.57,AU,1675234358
57,hilo,19.7297,-155.09,22.84,84,20,3.6,US,1675234358
58,kaitangata,-46.2817,169.8464,16.89,93,100,2.31,NZ,1675234359
59,cabo san lucas,22.8909,-109.9124,20.84,72,38,0.89,MX,1675234280
60,tiksi,71.6872,128.8694,-16.22,98,100,3.87,RU,1675234197
61,vila franca do campo,37.7167,-25.4333,13.23,82,97,3.02,PT,1675234258
62,chuy,-33.6971,-53.4616,20.93,94,4,2.19,UY,1675234274
63,nalut,30.3333,10.85,4.47,53,5,3.6,LY,1675234361
64,koslan,63.4564,48.8989,-2.26,93,100,5.44,RU,1675234362
65,saldanha,-33.0117,17.9442,16.03,85,9,5.7,ZA,1675234362
66,vimperk,49.0586,13.7829,1.59,96,100,6.73,CZ,1675234363
67,saskylakh,71.9167,114.0833,-25.76,96,100,9.09,RU,1675234364
68,upernavik,72.7868,-56.1549,-20.72,95,100,1.03,GL,1675234364
69,tura,25.5198,90.2201,28.33,25,0,2.96,IN,1675234365
70,lebu,-37.6167,-73.65,12.98,89,10,7.54,CL,1675234365
71,talaya,61.3833,152.75,-27.14,100,87,1.01,RU,1675234366
72,lamu,-2.2717,40.902,28.12,71,46,2.29,KE,1675234367
73,ushuaia,-54.8,-68.3,13.81,51,75,4.63,AR,1675234297
74,chengde,40.9725,117.9361,-3.08,23,3,6.83,CN,1675234367
75,arraial do cabo,-22.9661,-42.0278,23.9,90,100,9.89,BR,1675234225
76,bambous virieux,-20.3428,57.7575,29.56,74,75,4.63,MU,1675234368
77,port alfred,-33.5906,26.891,28.43,75,2,4.38,ZA,1675234369
78,cherskiy,68.75,161.3,-23.67,100,79,2.67,RU,1675234108
79,esperance,-33.8667,121.9,18.62,58,20,7.09,AU,1675234369
80,gat,31.61,34.7642,12.66,100,39,9.97,IL,1675234370
81,tadine,-21.55,167.8833,26.92,78,85,3.76,NC,1675234370
82,ambilobe,-13.2,49.05,30.87,67,95,0.25,MG,1675234371
83,saint-pierre,-21.3393,55.4781,28.99,74,75,7.72,RE,1675234372
84,trairi,-3.2778,-39.2689,24.08,92,100,3.84,BR,1675234135
85,saint george,37.1041,-113.5841,-1.14,44,0,1.79,US,1675234373
86,nuuk,64.1835,-51.7216,-15.0,85,100,5.49,GL,1675234373
87,gillette,44.2911,-105.5022,-8.49,70,0,6.69,US,1675234078
88,choix,26.7092,-108.3219,16.32,87,100,0.64,MX,1675234374
89,kaharlyk,49.8623,30.8282,-1.78,86,100,3.34,UA,1675234375
90,berlevag,70.8578,29.0864,-0.03,86,75,12.35,NO,1675234375
91,zhanaozen,43.3,52.8,4.35,63,100,4.77,KZ,1675234376
92,khatanga,71.9667,102.5,-43.32,100,56,0.46,RU,1675234376
93,mar del plata,-38.0023,-57.5575,20.49,90,100,2.68,AR,1675234198
94,kamaishi,39.2667,141.8833,5.3,76,82,5.8,JP,1675234377
95,atuona,-9.8,-139.0333,26.2,75,2,9.91,PF,1675234378
96,bexbach,49.3461,7.2553,5.36,94,100,6.69,DE,1675234378
97,sonoita,31.85,-112.8333,9.88,82,84,1.32,MX,1675234379
98,shetpe,44.1667,52.1167,3.31,57,98,2.48,KZ,1675234379
99,talnakh,69.4865,88.3972,-15.44,95,100,4.92,RU,1675234380
100,sorland,67.667,12.6934,1.92,62,32,4.11,NO,1675234381
101,gasa,31.5,34.4667,13.27,64,19,11.11,PS,1675234381
102,chernyshevskiy,63.0128,112.4714,-29.32,97,69,1.5,RU,1675234382
103,valdemarpils,57.3707,22.5919,-0.18,97,100,2.21,LV,1675234382
104,guymon,36.6828,-101.4816,-10.0,85,0,2.06,US,1675234383
105,san patricio,28.017,-97.5169,3.91,85,100,5.67,US,1675234384
106,macau,22.2006,113.5461,23.89,77,20,2.57,MO,1675234335
107,adelaide,-34.9333,138.6,22.8,60,75,7.2,AU,1675233765
108,bela palanka,43.2183,22.3111,3.04,96,99,1.26,RS,1675234386
109,humen,22.819,113.6731,21.95,57,39,2.07,CN,1675234386
110,belaya gora,68.5333,146.4167,-29.87,100,96,1.77,RU,1675234387
111,provideniya,64.3833,-173.3,-6.37,98,100,1.33,RU,1675234149
112,qitaihe,45.8,130.85,-10.33,87,87,5.44,CN,1675234388
113,kozhva,65.1073,57.0459,-4.88,88,100,6.33,RU,1675234389
114,puerto escondido,15.85,-97.0667,23.81,69,0,1.99,MX,1675234197
115,kiama,-34.6833,150.8667,25.14,71,72,3.6,AU,1675234389
116,nabire,-3.3667,135.4833,27.94,76,100,1.41,ID,1675234164
117,mandalgovi,45.7625,106.2708,-9.29,32,0,5.87,MN,1675234390
118,flint,43.0125,-83.6875,-11.64,77,75,4.12,US,1675234349
119,ferrol,43.4832,-8.2369,6.86,86,58,4.05,ES,1675234391
120,prince rupert,54.3161,-130.3201,5.83,86,100,9.77,CA,1675234393
121,new norfolk,-42.7826,147.0587,18.73,31,4,1.34,AU,1675234394
122,saint-philippe,-21.3585,55.7679,28.95,84,100,4.9,RE,1675234396
123,victoria,22.2855,114.1577,24.98,76,84,3.58,HK,1675234253
124,karasjok,69.4719,25.5112,-3.31,95,100,4.21,NO,1675234397
125,tessalit,20.1986,1.0114,14.66,13,6,2.77,ML,1675234398
126,pavlodar,52.3,76.95,-14.11,78,70,0.0,KZ,1675234253
127,iqaluit,63.7506,-68.5145,-26.15,76,75,7.2,CA,1675234399
128,college,64.8569,-147.8028,-9.96,78,100,2.06,US,1675234401
129,vallenar,-28.5708,-70.7581,18.99,68,0,0.99,CL,1675234401
130,bichena,10.45,38.2,18.63,25,8,2.23,ET,1675234402
131,bethel,41.3712,-73.414,-2.21,61,100,2.57,US,1675234403
132,airai,-8.9266,125.4092,20.33,85,100,1.19,TL,1675234404
133,avera,33.194,-82.5271,15.31,93,100,3.44,US,1675234404
134,faya,18.3851,42.4509,16.29,33,5,2.43,SA,1675234405
135,madison heights,42.4859,-83.1052,-9.54,78,0,2.06,US,1675234406
136,beringovskiy,63.05,179.3167,-7.35,98,80,3.25,RU,1675234293
137,ambon,-3.6954,128.1814,29.08,79,40,0.51,ID,1675234407
138,constitucion,-35.3333,-72.4167,12.12,79,0,2.46,CL,1675234407
139,torbay,47.6666,-52.7314,-2.46,93,100,10.29,CA,1675234408
140,bredasdorp,-34.5322,20.0403,23.53,65,83,4.7,ZA,1675234409
141,yulara,-25.2406,130.9889,33.98,11,0,8.87,AU,1675234409
142,kuytun,54.3419,101.5036,-12.33,81,100,1.21,RU,1675234410
143,kodiak,57.79,-152.4072,2.73,87,100,4.12,US,1675234410
144,qaanaaq,77.484,-69.3632,-21.22,53,97,3.5,GL,1675234411
145,petropavlovsk-kamchatskiy,53.0452,158.6483,-11.67,67,0,2.0,RU,1675234411
146,umm kaddadah,13.6017,26.6876,23.1,19,26,9.12,SD,1675234412
147,baft,29.234,56.6057,5.33,57,100,6.64,IR,1675234412
148,gejiu,23.306,103.1635,21.7,28,0,2.78,CN,1675234413
149,karacabey,40.2152,28.4038,3.21,71,62,5.04,TR,1675234413
150,pryshyb,47.2603,35.3228,-0.06,92,100,1.73,UA,1675234414
151,ust-kuyga,70.0167,135.6,-26.63,97,100,4.07,RU,1675234415
152,gornopravdinsk,60.05,69.9,-7.07,94,100,3.52,RU,1675234415
153,souillac,-20.5167,57.5167,29.21,74,75,4.63,MU,1675234416
154,byron bay,-28.65,153.6167,27.19,81,82,3.27,AU,1675234416
155,kavaratti,10.5669,72.642,26.46,77,48,6.28,IN,1675234417
156,butaritari,3.0707,172.7902,26.94,78,11,8.25,KI,1675234418
157,kerema,-7.9631,145.7785,28.65,78,98,2.11,PG,1675234384
158,rosetta,31.4044,30.4164,12.89,80,85,14.54,EG,1675234418
159,panguna,-6.3164,155.4848,21.46,96,100,1.56,PG,1675234419
160,georgetown,5.4112,100.3354,29.97,74,20,3.09,MY,1675234217
161,kununurra,-15.7667,128.7333,26.99,94,100,3.6,AU,1675234420
162,nanortalik,60.1432,-45.2371,-8.59,78,85,4.43,GL,1675234421
163,port lincoln,-34.7333,135.8667,18.36,57,6,7.71,AU,1675234421
164,ancud,-41.8697,-73.8203,8.49,89,26,1.19,CL,1675234422
165,geraldton,-28.7667,114.6,31.23,42,0,10.8,AU,1675234422
166,teya,60.3778,92.6267,-11.26,90,100,1.24,RU,1675234423
167,kahului,20.8947,-156.47,23.8,90,20,1.34,US,1675234424
168,wasilla,61.5814,-149.4394,-2.26,93,100,1.54,US,1675234424
169,ucluelet,48.9329,-125.5528,3.94,92,100,0.45,CA,1675234425
170,cidreira,-30.1811,-50.2056,23.15,92,0,0.19,BR,1675234425
171,necochea,-38.5473,-58.7368,18.48,84,100,2.5,AR,1675234426
172,dauphin,51.1494,-100.0502,-25.92,70,100,3.6,CA,1675234427
173,shelburne,44.0787,-80.2041,-13.0,93,7,3.98,CA,1675234162
174,pangoa,-12.1167,-73.0,20.02,100,100,0.69,PE,1675234427
175,poum,-20.2333,164.0167,26.57,59,39,2.16,NC,1675234428
176,omboue,-1.5746,9.2618,26.36,81,97,3.26,GA,1675234429
177,srivardhan,18.0333,73.0167,32.02,35,12,2.31,IN,1675234429
178,la palma,33.8464,-118.0467,14.6,32,0,1.54,US,1675234395
179,ahipara,-35.1667,173.1667,21.16,87,100,3.95,NZ,1675234430
180,tasiilaq,65.6145,-37.6368,-8.91,65,100,4.7,GL,1675234431
181,pangnirtung,66.1451,-65.7125,-31.71,76,94,2.03,CA,1675234431
182,fortuna,40.5982,-124.1573,3.19,93,0,4.12,US,1675234432
183,nortelandia,-14.4547,-56.8028,21.91,96,100,1.53,BR,1675234432
184,saiha,22.4833,92.9667,30.44,13,64,2.05,IN,1675234433
185,presidencia roque saenz pena,-26.7852,-60.4388,22.88,54,0,0.2,AR,1675234433
186,tateyama,34.9833,139.8667,14.5,61,91,12.61,JP,1675234434
187,kralendijk,12.15,-68.2667,23.99,83,1,3.09,BQ,1675234435
188,pacific grove,36.6177,-121.9166,7.58,83,0,2.06,US,1675234435
189,verkhnevilyuysk,63.4453,120.3167,-28.85,97,100,3.78,RU,1675234436
190,grand gaube,-20.0064,57.6608,29.65,69,100,5.36,MU,1675234436
191,narsaq,60.9167,-46.05,-11.46,93,100,3.1,GL,1675234437
192,isahaya,32.8411,130.0431,15.63,55,75,7.2,JP,1675234437
193,verkhnyaya inta,65.9811,60.3094,-4.71,79,59,7.93,RU,1675234438
194,rocha,-34.4833,-54.3333,19.74,96,13,1.89,UY,1675234438
195,clyde river,70.4692,-68.5914,-35.87,68,0,3.09,CA,1675234439
196,les cayes,18.2,-73.75,22.76,82,27,1.7,HT,1675234440
197,vao,-22.6667,167.4833,26.27,79,100,6.09,NC,1675234440
198,grindavik,63.8424,-22.4338,-2.74,80,0,2.57,IS,1675234178
199,srednekolymsk,67.45,153.6833,-30.83,96,87,0.37,RU,1675234441
200,mananjary,-21.2167,48.3333,24.33,84,100,3.04,MG,1675234441
201,acapulco,16.8634,-99.8901,23.75,72,0,1.8,MX,1675234310
202,lufilufi,-13.8745,-171.5986,25.88,72,100,5.86,WS,1675234442
203,hasaki,35.7333,140.8333,13.22,49,95,12.74,JP,1675234443
204,ostrovnoy,68.0531,39.5131,-6.02,96,91,2.94,RU,1675234444
205,tal,35.4791,72.2439,4.41,58,100,2.2,PK,1675234445
206,castro,-24.7911,-50.0119,17.25,99,100,1.09,BR,1675234446
207,manadhoo,5.7667,73.3833,26.93,76,100,6.15,MV,1675234446
208,kutum,14.2,24.6667,21.31,16,14,2.61,SD,1675234447
209,terrace,54.5163,-128.6035,0.95,100,100,1.03,CA,1675234448
210,vardo,70.3705,31.1107,-0.01,86,100,11.83,NO,1675234449
211,port blair,11.6667,92.75,30.02,70,20,3.6,IN,1675234449
212,plettenberg bay,-34.0527,23.3716,22.77,68,0,4.9,ZA,1675234450
213,baruun-urt,46.6806,113.2792,-15.09,79,2,4.23,MN,1675234451
214,east london,-33.0153,27.9116,28.52,69,0,3.09,ZA,1675234451
215,lukhovka,54.1484,45.2573,-2.22,94,99,5.84,RU,1675234452
216,pajapan,18.25,-94.7,21.98,84,6,2.44,MX,1675234453
217,ponta do sol,32.6667,-17.1,15.35,63,13,3.71,PT,1675234453
218,kasane,-17.8167,25.15,21.05,100,75,3.09,BW,1675234454
219,yazman,29.1212,71.7446,21.39,27,0,0.76,PK,1675234455
220,carnarvon,-24.8667,113.6333,26.82,72,100,6.45,AU,1675234456
221,scarborough,54.2797,-0.4044,6.76,84,100,4.47,GB,1675234458
222,nisia floresta,-6.0911,-35.2086,24.21,79,95,2.91,BR,1675234388
223,amuntai,-2.4177,115.2494,29.0,69,97,0.47,ID,1675234459
224,adilcevaz,38.8039,42.7342,-0.89,84,96,1.55,TR,1675234460
225,daru,-9.0763,143.2092,28.34,83,100,4.18,PG,1675234461
226,raudeberg,61.9875,5.1352,1.59,1,99,4.29,NO,1675234462
227,sao gabriel da cachoeira,-0.1303,-67.0892,20.99,98,98,0.54,BR,1675234462
228,ketchikan,55.3422,-131.6461,4.99,100,100,3.09,US,1675234463
229,buzmeyin,38.0507,58.2056,7.85,76,100,3.09,TM,1675234464
230,san jose,37.3394,-121.895,9.0,53,40,1.54,US,1675234383
231,bathsheba,13.2167,-59.5167,23.34,78,20,3.09,BB,1675234465
232,eureka,40.8021,-124.1637,3.34,68,100,1.58,US,1675234466
233,ballina,-28.8667,153.5667,27.23,85,83,3.32,AU,1675234467
234,salalah,17.0151,54.0924,24.05,53,75,3.09,OM,1675234467
235,iracoubo,5.4802,-53.2011,23.28,88,34,1.59,GF,1675234468
236,nanakuli,21.3906,-158.1547,24.99,78,20,2.06,US,1675234469
237,maceio,-9.6658,-35.7353,22.69,100,40,1.54,BR,1675234469
238,port augusta,-32.5,137.7667,24.78,41,0,7.78,AU,1675234470
239,chirnogeni,43.9,28.2333,0.23,85,14,4.66,RO,1675234470
240,haines junction,60.7522,-137.5108,-15.06,99,98,0.75,CA,1675234471
241,kuznechnoye,61.12,29.8686,-12.4,98,66,0.96,RU,1675234471
242,gitarama,-2.0744,29.7567,15.7,66,67,0.29,RW,1675234472
243,auki,-8.7676,160.7034,27.84,78,13,4.38,SB,1675234472
244,coihaique,-45.5752,-72.0662,10.97,66,0,1.54,CL,1675234473
245,linxia,35.6003,103.2064,-0.53,23,100,1.36,CN,1675234474
246,wloszczowa,50.8526,19.9659,2.32,92,99,7.22,PL,1675234475
247,hammerfest,70.6634,23.6821,0.25,80,75,8.23,NO,1675234475
248,contamana,-7.3333,-75.0167,22.09,95,100,1.05,PE,1675234476
249,elko,41.0002,-115.5012,-16.31,81,79,0.89,US,1675234289
250,waddan,29.1614,16.139,7.62,72,3,3.09,LY,1675234476
251,henties bay,-22.116,14.2845,17.97,84,100,1.84,NA,1675234477
252,port hedland,-20.3167,118.5667,35.03,55,14,7.72,AU,1675234478
253,xilagani,40.9833,25.4167,-0.06,89,47,0.52,GR,1675234478
254,nemuro,43.3236,145.575,-1.48,87,100,4.69,JP,1675234479
255,guerrero negro,27.9769,-114.0611,13.42,61,61,4.71,MX,1675234480
256,yarensk,62.1675,49.0916,-2.45,90,98,5.08,RU,1675234480
257,road town,18.4167,-64.6167,24.05,65,1,8.16,VG,1675234481
258,defiance,41.3334,-84.45,-9.96,67,0,0.0,US,1675234482
259,sao filipe,14.8961,-24.4956,21.31,71,14,5.64,CV,1675234483
260,manzhouli,49.6,117.4333,-17.63,85,5,5.45,CN,1675234483
261,amherst,41.3978,-82.2224,-8.32,77,0,2.57,US,1675234345
262,broken hill,-31.95,141.4333,27.24,28,0,4.35,AU,1675234484
263,indianola,41.3581,-93.5574,-10.08,69,4,1.34,US,1675234485
264,dikson,73.5069,80.5464,-19.58,87,100,4.43,RU,1675234481
265,barcelos,41.5388,-8.6151,7.6,69,10,2.22,PT,1675234486
266,lavrentiya,65.5833,-171.0,-12.42,100,88,1.66,RU,1675234486
267,itoman,26.1247,127.6694,23.21,53,20,7.72,JP,1675234487
268,eichstatt,48.8833,11.1833,3.38,75,75,6.17,DE,1675234487
269,san buenaventura,27.0833,-101.5333,3.04,73,100,1.45,MX,1675234488
270,san isidro,-12.1167,-77.05,24.45,79,0,5.66,PE,1675234488
271,toora-khem,52.4675,96.11,-11.61,85,73,0.69,RU,1675234489
272,paraiso,9.8383,-83.8656,17.48,93,7,1.79,CR,1675234316
273,emba,48.8264,58.1442,-9.02,76,33,5.03,KZ,1675234489
274,nizamabad,18.6667,78.1167,29.67,26,9,5.29,IN,1675234456
275,santa cruz de la palma,28.6835,-17.7642,15.08,72,75,3.6,ES,1675234490
276,okhotsk,59.3833,143.3,-17.64,97,100,4.95,RU,1675234491
277,pevek,69.7008,170.3133,-14.96,88,99,0.57,RU,1675234488
278,monte aprazivel,-20.7725,-49.7142,22.36,92,100,1.49,BR,1675234492
279,ixtapa,20.7,-105.2,20.68,85,71,0.93,MX,1675234492
280,mahdasht,35.7299,50.8111,8.12,93,0,4.12,IR,1675234493
281,khorol,49.7837,33.2783,-1.0,94,100,2.4,UA,1675234493
282,qasigiannguit,68.8193,-51.1922,-17.86,96,100,1.29,GL,1675234494
283,mahebourg,-20.4081,57.7,29.58,74,75,4.63,MU,1675234495
284,santa cruz,-17.8,-63.1667,22.7,100,75,3.6,BO,1675234331
285,liancheng,24.0519,105.075,25.82,28,0,1.57,CN,1675234495
286,omsukchan,62.5333,155.8,-26.4,100,90,1.41,RU,1675234496
287,luancheng,37.8792,114.6517,4.09,14,66,2.13,CN,1675234496
288,thinadhoo,0.5333,72.9333,27.4,73,67,5.45,MV,1675234497
289,vila,42.0304,-8.1588,-2.51,69,10,1.94,PT,1675234497
290,aden,12.7794,45.0367,24.65,61,76,6.98,YE,1675234421
291,caraballeda,10.6112,-66.8522,25.04,81,40,0.0,VE,1675234498
292,edson,53.5835,-116.4356,-7.92,93,100,1.03,CA,1675234499
293,codrington,-38.2667,141.9667,16.7,46,98,5.18,AU,1675234499
294,azuaga,38.2667,-5.6833,2.76,57,0,1.23,ES,1675234500
295,sitka,57.0531,-135.33,3.94,93,100,0.0,US,1675234500
296,mazyr,52.0495,29.2456,-2.29,90,100,4.37,BY,1675234501
297,ajuchitlan,20.7167,-100.0167,11.83,91,19,2.14,MX,1675234501
298,le port,-20.9373,55.2919,29.17,78,99,1.59,RE,1675234502
299,belyy yar,53.6039,91.3903,-13.41,87,100,0.0,RU,1675234503
300,sokolo,14.7328,-6.1219,16.88,13,100,4.38,ML,1675234504
301,aitape,-3.1374,142.3475,27.43,79,74,2.93,PG,1675234505
302,ponta delgada,37.7333,-25.6667,13.4,71,20,3.09,PT,1675234507
303,olafsvik,64.8945,-23.7142,-1.61,87,100,5.04,IS,1675234507
304,coahuayana,18.7333,-103.6833,19.28,87,6,1.88,MX,1675234508
305,paris,48.8534,2.3488,6.81,82,100,4.63,FR,1675233774
306,tual,-5.6667,132.75,28.62,74,100,4.88,ID,1675234509
307,bozdar,27.1828,68.636,22.58,26,0,1.16,PK,1675234510
308,kud,33.0833,75.2833,10.06,40,10,2.76,IN,1675234510
309,mackay,-21.15,149.2,28.27,84,100,4.87,AU,1675234511
310,cozumel,20.5083,-86.9458,23.04,88,20,0.0,MX,1675234511
311,deputatskiy,69.3,139.9,-30.33,96,99,2.34,RU,1675234512
312,biak,-0.9131,122.8766,28.46,69,100,2.04,ID,1675234513
313,along,28.1667,94.7667,27.63,27,1,0.84,IN,1675234513
314,roald,62.5833,6.1333,3.75,100,75,2.06,NO,1675234514
315,jasidih,24.5167,86.65,27.13,17,0,7.69,IN,1675234515
316,marapanim,-0.7175,-47.6997,22.79,97,100,1.16,BR,1675234516
317,isla mujeres,21.2311,-86.731,25.09,80,5,4.57,MX,1675234516
318,matara,5.9485,80.5353,30.91,59,88,3.19,LK,1675234517
319,te anau,-45.4167,167.7167,16.85,97,100,0.41,NZ,1675234518
320,vaitape,-16.5167,-151.75,27.67,74,100,7.54,PF,1675234433
321,tete,-16.1564,33.5867,27.05,78,40,1.54,MZ,1675234520
322,tuatapere,-46.1333,167.6833,16.39,98,100,0.61,NZ,1675234476
323,alofi,-19.0595,-169.9187,24.94,22,75,2.06,NU,1675234522
324,la ronge,55.1001,-105.2842,-29.86,76,0,2.06,CA,1675234523
325,qarchi gak,37.04,66.7889,13.4,40,100,9.01,AF,1675234523
326,san policarpo,12.1791,125.5072,27.36,83,44,5.08,PH,1675234524
327,ilinskiy,55.619,38.1182,0.29,86,100,3.13,RU,1675234524
328,flinders,-34.5833,150.8552,25.03,69,56,3.89,AU,1675234525
329,sao luiz gonzaga,-28.4083,-54.9608,21.37,75,0,2.9,BR,1675234526
330,tatarsk,55.219,75.9828,-14.14,87,5,1.95,RU,1675234526
331,yumen,40.2833,97.2,-2.16,30,97,0.65,CN,1675234527
332,swan hill,-35.3378,143.5544,27.84,26,0,5.28,AU,1675234527
333,misratah,32.3754,15.0925,13.6,71,68,7.23,LY,1675234528
334,bhachau,23.2833,70.35,25.21,26,4,6.39,IN,1675234528
335,paamiut,61.994,-49.6678,-9.25,72,100,4.15,GL,1675234529
336,ozinki,51.1786,49.6769,-6.8,75,85,4.69,RU,1675234530
337,kruje,41.5092,19.7928,-3.99,86,0,1.03,AL,1675234530
338,rimouski,48.4488,-68.524,-11.18,91,47,4.17,CA,1675234530
339,eenhana,-17.4667,16.3333,21.14,80,99,1.22,NA,1675234531
340,kambove,-10.8764,26.5969,18.72,90,97,1.34,CD,1675234532
341,zadar,44.1197,15.2422,-1.66,86,0,2.57,HR,1675234227
342,asau,46.4333,26.4,1.51,84,100,3.15,RO,1675234532
343,cap malheureux,-19.9842,57.6142,29.7,70,100,3.58,MU,1675234510
344,zvishavane,-20.3267,30.0665,25.25,59,90,2.39,ZW,1675234533
345,horsham,51.064,-0.3272,6.68,83,20,4.63,GB,1675234534
346,uri,34.0833,74.0333,8.66,62,100,3.83,IN,1675234534
347,xiongzhou,25.1167,114.3,25.49,41,43,1.41,CN,1675234535
348,bere,9.3202,16.1552,26.67,17,13,3.49,TD,1675234535
349,dalnerechensk,45.9339,133.7225,-12.75,83,100,5.27,RU,1675234536
350,yambio,4.5721,28.3955,30.99,29,18,1.54,SS,1675234465
351,burnie,-41.0667,145.9167,19.97,35,88,4.66,AU,1675234537
352,wagar,16.1525,36.2032,26.9,46,24,3.38,SD,1675234537
353,imbituba,-28.24,-48.6703,22.76,82,0,0.98,BR,1675234538
354,harper,4.375,-7.7169,25.5,85,57,1.76,LR,1675234538
355,carolina,18.3808,-65.9574,24.98,79,75,6.17,PR,1675234539
356,puerto plata,19.7934,-70.6884,19.95,94,40,0.0,DO,1675234243
357,correntina,-13.3433,-44.6367,19.34,81,7,1.71,BR,1675234540
358,coos bay,43.3665,-124.2179,2.18,93,0,3.6,US,1675233990
359,skibbereen,51.55,-9.2667,10.06,75,100,7.92,IE,1675234541
360,coffs harbour,-30.3,153.1333,25.98,73,6,2.06,AU,1675234541
361,marawi,7.9986,124.2928,23.34,91,100,1.81,PH,1675234542
362,anadyr,64.75,177.4833,-2.72,86,40,5.0,RU,1675234542
363,cervo,43.6702,-7.4101,8.46,86,91,4.08,ES,1675234543
364,inhambane,-23.865,35.3833,27.83,56,53,4.36,MZ,1675234544
365,homer,59.6425,-151.5483,1.93,93,100,1.54,US,1675234544
366,gonen,40.1049,27.654,2.98,75,27,3.67,TR,1675234545
367,nizwa,22.9333,57.5333,21.72,25,4,2.33,OM,1675234466
368,severo-kurilsk,50.6789,156.125,-5.44,83,54,3.78,RU,1675234460
369,baykit,61.67,96.37,-15.38,96,94,0.72,RU,1675234546
370,dunedin,-45.8742,170.5036,17.78,91,100,5.4,NZ,1675234547
371,buenos aires,-34.6132,-58.3772,24.43,80,40,6.69,AR,1675234343
372,aklavik,68.2191,-135.0107,-35.29,100,77,2.65,CA,1675234525
373,sayat,38.7839,63.8803,13.93,42,100,13.31,TM,1675234548
374,savannah bight,16.45,-85.85,26.09,75,12,9.06,HN,1675234548
375,benguela,-12.5763,13.4055,25.6,81,80,1.41,AO,1675234549
376,marystown,47.1666,-55.1483,-6.88,82,81,7.78,CA,1675234550
377,gogrial,8.5332,28.1004,30.84,10,59,2.85,SS,1675234551
378,rawson,-43.3002,-65.1023,14.75,68,0,7.52,AR,1675234551
379,gariadhar,21.5333,71.5833,26.0,30,98,6.63,IN,1675234552
380,taltal,-25.4,-70.4833,20.03,83,67,0.4,CL,1675234552
381,greensboro,36.0726,-79.792,11.57,96,100,3.6,US,1675234368
382,iralaya,15.0,-83.2333,25.01,82,8,6.18,HN,1675234553
383,marsala,37.7966,12.4352,8.3,87,0,3.6,IT,1675234553
384,rio grande,-32.035,-52.0986,23.08,85,0,2.28,BR,1675234554
385,hit,33.6416,42.8251,12.91,54,4,2.92,IQ,1675234132
386,sorong,-0.8833,131.25,28.74,71,27,4.79,ID,1675234555
387,zwedru,6.0667,-8.1281,21.09,98,38,0.69,LR,1675234556
388,rantoul,40.3084,-88.1559,-11.99,78,0,0.0,US,1675234488
389,boquira,-12.8231,-42.7306,18.52,84,0,1.64,BR,1675234556
390,manokwari,-0.8667,134.0833,28.2,72,89,2.69,ID,1675234557
391,muros,42.7762,-9.0603,6.72,86,11,4.91,ES,1675234558
392,longyearbyen,78.2186,15.6401,-8.09,62,75,4.63,SJ,1675234519
393,jian,27.1172,114.9793,20.57,49,100,1.14,CN,1675234559
394,urusha,54.05,122.9,-13.91,73,99,1.91,RU,1675234559
395,verkhneyarkeyevo,55.4505,54.3145,-8.42,90,31,3.57,RU,1675234560
396,motril,36.7507,-3.5179,7.93,53,0,1.79,ES,1675233978
397,arman,59.7,150.1667,-12.21,95,100,2.31,RU,1675234561
398,mogadishu,2.0371,45.3438,26.93,74,75,5.66,SO,1675234371
399,havelock,34.8791,-76.9013,14.97,89,100,1.54,US,1675234561
400,yarmouth,41.7057,-70.2286,-0.92,57,100,6.26,US,1675234562
401,alvaraes,-3.2208,-64.8042,21.6,98,99,0.62,BR,1675234563
402,canaries,28.0,-15.5,10.98,67,20,5.14,ES,1675234563
403,leshan,29.5623,103.7639,20.38,26,0,1.74,CN,1675234564
404,otjiwarongo,-20.4637,16.6477,20.67,69,75,1.57,NA,1675234565
405,laguna,38.421,-121.4238,7.27,70,0,2.06,US,1675233888
406,saint-augustin,51.226,-58.6502,-25.15,91,5,2.13,CA,1675234566
407,taoudenni,22.6783,-3.9836,11.44,25,34,5.68,ML,1675234566
408,batticaloa,7.7102,81.6924,25.29,82,100,10.59,LK,1675234567
409,amboasary,-25.0333,46.3833,26.95,63,64,5.61,MG,1675234568
410,menomonie,44.8755,-91.9193,-13.98,85,0,0.0,US,1675234103
411,zulueta,42.7451,-1.5793,5.38,59,75,4.47,ES,1675234569
412,san andres,12.5847,-81.7006,25.01,78,40,6.69,CO,1675234570
413,nantucket,41.2835,-70.0995,-0.92,55,100,7.2,US,1675234570
414,jutai,-5.1833,-68.9,22.03,100,100,0.46,BR,1675234562
415,hofn,64.2539,-15.2082,-2.02,62,99,4.46,IS,1675234571
416,hovd,48.0056,91.6419,-14.54,78,100,1.54,MN,1675234572
417,lompoc,34.6391,-120.4579,5.85,94,0,2.06,US,1675234502
418,liverpool,53.4106,-2.9779,8.57,77,75,9.77,GB,1675234344
419,evensk,61.95,159.2333,-12.61,96,100,2.3,RU,1675234574
420,coxim,-18.5067,-54.76,22.6,94,100,1.4,BR,1675234574
421,karpathos,35.507,27.2132,9.98,50,20,13.38,GR,1675234575
422,nelson bay,-32.7167,152.15,26.72,78,0,4.02,AU,1675234576
423,shahpura,27.3833,75.9667,19.9,32,0,4.81,IN,1675234577
424,balsas,-7.5325,-46.0356,23.89,76,100,1.61,BR,1675234577
425,oranjestad,12.524,-70.027,25.4,76,5,8.09,AW,1675234578
426,alugan,12.2188,125.4808,27.39,82,49,4.88,PH,1675234579
427,biltine,14.5333,20.9167,24.63,17,49,6.05,TD,1675234580
428,kwekwe,-18.9281,29.8149,24.01,62,16,2.61,ZW,1675234582
429,margate,51.3813,1.3862,4.93,81,100,2.24,GB,1675234550
430,aswan,24.0934,32.907,12.61,40,0,1.54,EG,1675234562
431,newport,51.5877,-2.9984,8.03,80,84,7.27,GB,1675234584
432,liseleje,56.0053,11.9483,3.84,89,100,7.6,DK,1675234584
433,hohhot,40.8106,111.6522,-3.84,28,0,1.0,CN,1675234585
434,zhob,31.3411,69.4481,12.99,26,0,0.93,PK,1675234586
435,macklin,52.3334,-109.9348,-18.81,98,94,0.52,CA,1675234586
436,yining,29.0361,114.5636,22.41,32,1,1.61,CN,1675234587
437,trincomalee,8.5711,81.2335,23.78,95,100,10.66,LK,1675234375
438,laramie,41.3114,-105.5911,-7.8,62,0,12.86,US,1675234397
439,port hardy,50.6996,-127.4199,3.1,93,100,8.23,CA,1675234374
440,bagepalli,13.7847,77.7931,28.56,32,2,6.49,IN,1675234589
441,iclod,46.9833,23.8,-1.94,98,100,3.01,RO,1675234589
442,tikapur,28.5,81.1333,25.26,28,0,3.31,NP,1675234590
443,basoko,1.2391,23.616,26.57,63,16,1.0,CD,1675234590
444,turinsk,58.0458,63.696,-4.33,92,90,3.45,RU,1675234591
445,westport,41.1415,-73.3579,-0.15,57,100,4.63,US,1675234592
446,trelew,-43.249,-65.3051,14.54,68,0,6.93,AR,1675234592
447,orange cove,36.6244,-119.3137,5.87,96,0,1.54,US,1675234593
448,hobyo,5.3505,48.5268,26.51,62,21,7.88,SO,1675234502
449,bokhan,53.153,103.7714,-11.43,78,100,0.67,RU,1675234594
450,naryan-mar,67.6713,53.087,-2.9,93,100,9.56,RU,1675234594
451,ferme-neuve,46.7001,-75.4493,-24.88,100,32,1.15,CA,1675234595
452,sapouy,11.5544,-1.7736,20.33,8,33,2.87,BF,1675234596
453,bubaque,11.2833,-15.8333,24.99,47,54,6.08,GW,1675234596
454,kamiiso,41.8167,140.65,1.21,93,75,6.17,JP,1675234597
455,ballaghaderreen,53.9,-8.5833,7.64,93,100,5.36,IE,1675234598
456,craig,40.5153,-107.5464,-18.21,69,75,0.0,US,1675234598
457,aleksandrovskiy zavod,50.9237,117.9374,-13.61,70,0,3.68,RU,1675234599
458,luanda,-8.8368,13.2343,26.0,89,75,3.6,AO,1675233816
459,the valley,18.217,-63.0578,24.5,69,1,7.64,AI,1675234474
460,kitimat,54.0524,-128.6534,1.21,30,100,0.95,CA,1675234600
461,port elizabeth,-33.918,25.5701,26.72,78,20,8.23,ZA,1675234546
462,klaksvik,62.2266,-6.589,2.51,87,100,8.26,FO,1675234601
463,ust-karsk,52.7011,118.8077,-12.69,76,57,1.92,RU,1675234601
464,quatre cocos,-20.2078,57.7625,29.49,67,100,6.04,MU,1675234510
465,saint-martin-de-crau,43.6395,4.8127,8.23,61,0,8.75,FR,1675234602
466,ust-tsilma,65.441,52.1498,-2.27,87,93,5.54,RU,1675234602
467,kaeo,-35.1,173.7833,22.96,88,98,2.5,NZ,1675234603
468,kaabong,3.4836,34.1492,25.26,37,4,4.77,UG,1675234604
469,kalengwa,-13.4659,25.0027,18.15,94,100,0.56,ZM,1675234604
470,komsomolskiy,40.4272,71.7189,4.4,60,100,1.03,UZ,1675234605
471,baryshivka,50.361,31.3217,-1.62,91,100,3.33,UA,1675234605
472,sigli,5.3848,95.9609,28.18,71,73,3.21,ID,1675234607
473,karatau,43.1667,70.4667,1.63,88,100,2.13,KZ,1675234607
474,takoradi,4.8845,-1.7554,25.74,85,17,0.53,GH,1675234401
475,van wert,40.8695,-84.5841,-7.75,81,61,2.24,US,1675234485
476,singaraja,-8.112,115.0882,27.58,84,100,1.98,ID,1675234608
477,oistins,13.0667,-59.5333,23.05,78,20,3.09,BB,1675234609
478,nishihara,26.1842,127.7558,22.81,53,20,7.72,JP,1675234609
479,mbanza-ngungu,-5.25,14.8667,21.77,87,63,1.23,CD,1675234610
480,nome,64.5011,-165.4064,-6.96,93,100,0.0,US,1675234611
481,abu kamal,34.4506,40.9171,11.12,65,100,4.45,SY,1675234611
482,durgapur,23.4833,87.3167,27.16,41,40,5.14,IN,1675234612
483,pendleton,45.6721,-118.7886,1.55,69,100,2.06,US,1675234612
484,ostra,43.6139,13.1582,6.84,72,23,1.54,IT,1675234613
485,sibolga,1.7427,98.7792,29.9,64,63,2.32,ID,1675234613
486,ryotsu,38.0833,138.4333,7.82,64,95,12.38,JP,1675234614
487,punto fijo,11.6956,-70.1996,23.87,80,3,5.58,VE,1675234614
488,makurdi,7.7411,8.5121,27.54,58,17,2.21,NG,1675234615
489,sainte-rose,16.3324,-61.6979,20.66,94,40,0.0,GP,1675234615
490,olinda,-8.0089,-34.8553,26.85,74,40,2.06,BR,1675234616
491,kiunga,-6.1219,141.2906,29.02,78,100,1.83,PG,1675234616
492,shreveport,32.5251,-93.7502,2.3,88,100,2.57,US,1675234519
493,nshamba,-1.7983,31.5511,21.06,66,36,1.14,TZ,1675234617
494,suhbaatar,50.2314,106.2078,-15.25,83,99,1.55,MN,1675234617
495,sayyan,15.1718,44.3244,18.35,19,11,1.54,YE,1675234618
496,carberry,49.8689,-99.3602,-21.87,96,29,2.83,CA,1675234619
497,lasa,46.6166,10.7002,2.49,94,50,3.34,IT,1675234619
498,totness,5.8833,-56.3167,23.5,85,5,3.44,SR,1675234620
499,kasaragod,12.5,75.0,33.29,32,67,3.04,IN,1675234261
500,hede,33.7681,120.2517,4.84,46,100,9.94,CN,1675234621
501,karachev,53.1229,34.9852,-2.2,94,89,3.53,RU,1675234621
502,sur,22.5667,59.5289,23.2,53,7,4.13,OM,1675234622
503,volchikha,52.0333,80.3833,-7.53,82,65,1.74,RU,1675234622
504,aviles,43.5547,-5.9248,8.29,77,75,3.09,ES,1675234623
505,kruisfontein,-34.0033,24.7314,25.49,53,1,7.08,ZA,1675234624
506,patiya,22.2931,91.9762,30.81,27,88,3.9,BD,1675234170
507,san miguel,13.4833,-88.1833,22.84,64,6,1.04,SV,1675234624
508,xai-xai,-25.0519,33.6442,26.26,63,99,2.45,MZ,1675234625
509,atar,20.5169,-13.0499,17.52,23,100,2.58,MR,1675234625
510,chicama,-7.8447,-79.1469,19.3,72,100,1.46,PE,1675234626
511,lakatoro,-16.0999,167.4164,27.83,76,18,1.86,VU,1675234626
512,igrim,63.1906,64.4162,-5.88,89,35,4.12,RU,1675234627
513,wewak,-3.5534,143.6268,27.58,79,79,4.69,PG,1675234627
514,doha,25.2867,51.5333,22.99,54,0,10.29,QA,1675234628
515,makat,47.6469,53.3463,-0.19,49,98,5.84,KZ,1675234628
516,paveh,35.0434,46.3565,1.84,92,100,1.94,IR,1675234628
517,beloha,-25.1667,45.05,25.74,64,73,7.23,MG,1675234629
518,leningradskiy,69.3833,178.4167,-16.28,96,100,4.01,RU,1675234629
519,san ramon de la nueva oran,-23.1322,-64.326,24.12,95,7,1.25,AR,1675234630
520,boende,-0.2167,20.8667,26.82,56,98,1.69,CD,1675234630
521,sandviken,60.6167,16.7667,-1.91,67,100,1.14,SE,1675234631
522,ceica,46.85,22.1833,2.1,96,100,5.03,RO,1675234631
523,onguday,50.75,86.15,-5.53,71,100,0.82,RU,1675234632
524,palu,-0.8917,119.8707,24.32,99,100,0.98,ID,1675234632
525,bilma,18.6853,12.9164,14.36,29,99,5.77,NE,1675234633
526,gewane,10.1664,40.6453,24.84,43,6,1.8,ET,1675234634
527,katsuura,35.1333,140.3,12.69,61,100,12.62,JP,1675234339
528,nerchinskiy zavod,51.3088,119.61,-16.38,82,3,2.2,RU,1675234634
529,manyana,-23.4,21.7167,19.41,87,100,6.2,BW,1675234635
530,la palma del condado,37.3861,-6.5523,4.48,52,0,2.07,ES,1675234636
531,tuy hoa,13.0833,109.3,24.45,82,98,3.46,VN,1675234636
532,huaihua,27.5494,109.9592,12.9,47,100,1.18,CN,1675234637
533,georgiyevka,43.0369,74.7114,2.02,60,22,3.0,KZ,1675234637
534,nizhniy odes,63.6445,54.856,-4.93,92,100,5.27,RU,1675234638
535,slupsk,54.4641,17.0287,3.58,80,100,10.27,PL,1675234639
536,el alto,-4.2714,-81.2147,22.91,80,81,3.36,PE,1675234482
537,krasnyy chikoy,50.3643,108.7512,-12.18,78,100,0.48,RU,1675234639
538,dunmore east,52.1514,-6.9861,7.91,68,77,7.35,IE,1675234640
539,bajil,15.0584,43.2851,26.36,53,12,2.8,YE,1675234641
540,lampazos de naranjo,27.0167,-100.5167,4.25,71,100,2.58,MX,1675234641
541,arcata,40.8665,-124.0828,3.34,87,0,2.06,US,1675234642
542,aketi,2.7388,23.7833,27.83,56,18,1.23,CD,1675234642
543,north bend,43.4065,-124.2243,2.14,93,0,3.6,US,1675234537
544,fairmont,39.4851,-80.1426,-1.45,93,100,2.33,US,1675234643
545,moree,-29.4667,149.85,32.41,29,0,2.47,AU,1675234644
546,ponta grossa,-25.095,-50.1619,17.17,99,100,1.35,BR,1675234644
547,huarmey,-10.0681,-78.1522,21.59,80,100,2.06,PE,1675234645
548,adre,13.4667,22.2,23.65,17,21,6.54,TD,1675234645
549,calabozo,8.9242,-67.4293,22.0,67,0,2.65,VE,1675234646
550,stanceni,46.9833,25.2333,-2.6,93,96,2.42,RO,1675234646
551,pemangkat,1.1667,108.9667,27.51,77,58,4.29,ID,1675234647
552,alta floresta,-9.8756,-56.0861,19.94,99,83,0.55,BR,1675234647
553,hami,42.8,93.45,-0.91,46,100,1.04,CN,1675234529
554,sambava,-14.2667,50.1667,28.73,70,48,5.3,MG,1675234648
555,sisimiut,66.9395,-53.6735,-22.04,89,62,3.14,GL,1675234640
556,toamasina,-18.1667,49.3833,26.0,89,75,3.09,MG,1675234500
557,oranjemund,-28.55,16.4333,19.77,72,88,4.07,NA,1675234649
558,usinsk,65.9939,57.5281,-5.22,90,99,10.91,RU,1675234650
559,merauke,-8.4667,140.3333,29.14,75,100,4.75,ID,1675234508
560,ciudad bolivar,8.1222,-63.5497,23.87,71,100,5.28,VE,1675234651
561,santa rosa,14.3122,121.1114,31.17,66,55,6.55,PH,1675234651
562,mount gambier,-37.8333,140.7667,17.17,43,93,4.54,AU,1675234532
563,odesskoye,54.2111,72.9651,-14.0,90,14,2.15,RU,1675234652
564,yar-sale,66.8333,70.8333,-8.6,93,100,6.41,RU,1675234606
565,ust-ishim,57.6935,71.1665,-8.44,86,44,2.85,RU,1675234653
566,tonder,54.9331,8.8667,6.02,84,100,2.24,DK,1675234653
567,sheopur,25.6667,76.7,20.78,28,0,2.42,IN,1675234654
568,aripuana,-9.1667,-60.6333,21.47,96,100,0.58,BR,1675234654
569,millau,44.0833,2.9167,3.07,97,80,1.95,FR,1675234403
570,ippy,6.2679,21.2247,30.79,27,6,0.85,CF,1675234655
571,pontes e lacerda,-15.2261,-59.3353,21.79,98,100,1.44,BR,1675234656
572,batsfjord,70.6345,29.7185,-0.04,86,75,11.32,NO,1675234656
573,amalner,21.05,75.0667,27.17,30,21,1.99,IN,1675234656
574,pandrup,57.2215,9.6757,3.95,87,40,6.17,DK,1675234657
575,hualmay,-11.0964,-77.6139,21.58,81,100,2.81,PE,1675234657
576,nola,40.922,14.5329,9.1,67,96,0.63,IT,1675234658
577,pinczow,50.5205,20.5265,2.56,89,100,8.08,PL,1675234658
578,nhulunbuy,-12.2333,136.7667,33.34,62,100,9.26,AU,1675234572
579,whitehorse,60.7161,-135.0538,-10.57,85,100,2.57,CA,1675234494
580,ajdabiya,30.7554,20.2263,13.4,62,32,4.04,LY,1675234659
581,staryy nadym,65.6118,72.6842,-8.11,93,100,7.2,RU,1675234660
582,mount isa,-20.7333,139.5,31.87,45,100,3.6,AU,1675234660
583,verin,41.9415,-7.4381,1.98,80,26,1.03,ES,1675234661
584,san quintin,30.4833,-115.95,12.44,66,94,1.51,MX,1675234662
